名称,所在地_連結表記,所在地_都道府県,所在地_市区町村,緯度,経度,電話番号,内線番号,連絡先メールアドレス,連絡先FormURL,連絡先備考（その他、SNSなど）,郵便番号,法人番号,団体名,利用可能曜日,開始時間,終了時間,利用可能時間特記事項,説明,車椅子可,車椅子貸出,ツエ貸出,バリアフリートイレ,スロープ、エレベータ、エスカレータ,点字ブロック等の移動支援,点字や読上による支援,盲導犬・介助犬、聴導犬同伴,字幕,筆談対応,優先駐車場,オストメイト対応トイレ,授乳室,おむつ替えコーナー,飲食可否,ベビーカー貸出,ベビーカー利用,URL
羽咋市役所庁舎,石川県羽咋市旭町ア200番地,石川県,羽咋市,36.89365,136.77899,,,,,,,,,,,,,,,,,,,,,,,,,,,,,,,
合同事務所,石川県羽咋市中央町キ6-4,石川県,羽咋市,36.8927,136.77752,,,,,,,,,,,,,,,,,,,,,,,,,,,,,,,
羽咋市役所分庁舎,石川県羽咋市旭町233-1,石川県,羽咋市,36.89539,136.77899,,,,,,,,,,,,,,,,,,,,,,,,,,,,,,,
羽咋市役所体育館,石川県羽咋市旭町ア200番地,石川県,羽咋市,36.89365,136.77899,,,,,,,,,,,,,,,,,,,,,,,,,,,,,,,
羽咋駅東口駅舎,石川県羽咋市東川原町チ163-1,石川県,羽咋市,36.89691,136.78381,,,,,,,,,,,,,,,,,,,,,,,,,,,,,,,
羽咋市立羽咋公民館,石川県羽咋市中央町フ169の2,石川県,羽咋市,36.89703,136.77527,,,,,,,,,,,,,,,,,,,,,,,,,,,,,,,
羽咋市立粟ノ保公民館,石川県羽咋市兵庫町タ46番地,石川県,羽咋市,36.88241,136.77899,,,,,,,,,,,,,,,,,,,,,,,,,,,,,,,
羽咋市立千里浜公民館,石川県羽咋市千里浜町ハ140番地2,石川県,羽咋市,36.89499,136.77127,,,,,,,,,,,,,,,,,,,,,,,,,,,,,,,
羽咋市立一ノ宮公民館,石川県羽咋市一ノ宮町レ86-1,石川県,羽咋市,36.92473,136.7627,,,,,,,,,,,,,,,,,,,,,,,,,,,,,,,
羽咋市立越路野公民館,石川県羽咋市千路町も30,石川県,羽咋市,36.92451,136.79331,,,,,,,,,,,,,,,,,,,,,,,,,,,,,,,
羽咋市立邑知公民館,石川県羽咋市飯山町ル78番地1,石川県,羽咋市,36.90219,136.82811,,,,,,,,,,,,,,,,,,,,,,,,,,,,,,,
羽咋市立上甘田公民館,石川県羽咋市柴垣町36字19-1,石川県,羽咋市,36.95293,136.76624,,,,,,,,,,,,,,,,,,,,,,,,,,,,,,,
羽咋市立邑知公民館神子原分館,石川県羽咋市神子原町チ18番地,石川県,羽咋市,36.88399,136.86217,,,,,,,,,,,,,,,,,,,,,,,,,,,,,,,
羽咋市立余喜公民館,石川県羽咋市四栁町ちノ部16,石川県,羽咋市,36.93157,136.85696,,,,,,,,,,,,,,,,,,,,,,,,,,,,,,,
羽咋市立富永公民館,石川県羽咋市深江町ハ128番地,石川県,羽咋市,36.90317,136.80351,,,,,,,,,,,,,,,,,,,,,,,,,,,,,,,
羽咋市立鹿島路公民館,石川県羽咋市鹿島路町1788番地,石川県,羽咋市,36.93533,136.81241,,,,,,,,,,,,,,,,,,,,,,,,,,,,,,,
一ノ宮地区体育館,石川県羽咋市一ノ宮町レ86-1,石川県,羽咋市,36.92473,136.7627,,,,,,,,,,,,,,,,,,,,,,,,,,,,,,,
上甘田地区体育館,石川県羽咋市柴垣町36字19-1,石川県,羽咋市,36.95293,136.76624,,,,,,,,,,,,,,,,,,,,,,,,,,,,,,,
市民活動支援センター,石川県羽咋市鶴多町亀田17番地,石川県,羽咋市,36.89854,136.79379,,,,,,,,,,,,,,,,,,,,,,,,,,,,,,,
コスモアイル羽咋,石川県羽咋市鶴多町免田25-1,石川県,羽咋市,36.89823,136.78839,,,,,,,,,,,,,,,,,,,,,,,,,,,,,,,
羽咋市立図書館,石川県羽咋市鶴多町免田25-1,石川県,羽咋市,36.89823,136.78839,,,,,,,,,,,,,,,,,,,,,,,,,,,,,,,
羽咋市歴史民俗資料館,石川県羽咋市鶴多町鶴田田38-1,石川県,羽咋市,36.89775,136.79118,,,,,,,,,,,,,,,,,,,,,,,,,,,,,,,
唐戸山資料展示室,石川県羽咋市南中央町ユ94,石川県,羽咋市,36.89101,136.78002,,,,,,,,,,,,,,,,,,,,,,,,,,,,,,,
羽咋体育館,石川県羽咋市鶴多町亀田１７,石川県,羽咋市,36.89854,136.79379,,,,,,,,,,,,,,,,,,,,,,,,,,,,,,,
羽咋市民体育館,石川県羽咋市中央町キ59番地,石川県,羽咋市,36.89132,136.7758,,,,,,,,,,,,,,,,,,,,,,,,,,,,,,,
神子原スポーツセンター,石川県羽咋市神子原町チ22番地,石川県,羽咋市,36.88378,136.86168,,,,,,,,,,,,,,,,,,,,,,,,,,,,,,,
余喜スポーツセンター,石川県羽咋市大町64番地,石川県,羽咋市,36.93206,136.84436,,,,,,,,,,,,,,,,,,,,,,,,,,,,,,,
羽咋市武道館,石川県羽咋市鶴多町鶴多田12,石川県,羽咋市,36.8969,136.79054,,,,,,,,,,,,,,,,,,,,,,,,,,,,,,,
羽咋市柔道館,石川県羽咋市飯山町リ100番地,石川県,羽咋市,36.9007,136.82564,,,,,,,,,,,,,,,,,,,,,,,,,,,,,,,
弓道場,石川県羽咋市鶴多町亀田17番地,石川県,羽咋市,36.89854,136.79379,,,,,,,,,,,,,,,,,,,,,,,,,,,,,,,
屋内ゲートボール場　すぱーく羽咋,石川県羽咋市千里浜町カ1-11,石川県,羽咋市,36.88533,136.76981,,,,,,,,,,,,,,,,,,,,,,,,,,,,,,,
ユーフォリア千里浜,石川県羽咋市千里浜町タ1-67,石川県,羽咋市,36.88973,136.76794,,,,,,,,,,,,,,,,,,,,,,,,,,,,,,,
羽咋市ファミリーランド,石川県羽咋市一ノ宮寺家滝町入会地赤山1-2,石川県,羽咋市,36.92803,136.77837,,,,,,,,,,,,,,,,,,,,,,,,,,,,,,,
ちりはまホテルゆ華,石川県羽咋市千里浜町タ1番26,石川県,羽咋市,36.88531,136.76761,,,,,,,,,,,,,,,,,,,,,,,,,,,,,,,
羽咋勤労者総合福祉センター,石川県羽咋市千里浜町カ1-20,石川県,羽咋市,36.88535,136.77072,,,,,,,,,,,,,,,,,,,,,,,,,,,,,,,
神子原農林水産物加工販売施設,石川県羽咋市神子原町は190,石川県,羽咋市,36.88357,136.86177,,,,,,,,,,,,,,,,,,,,,,,,,,,,,,,
羽咋市立羽咋小学校,石川県羽咋市中央町サ90番地,石川県,羽咋市,36.89403,136.77516,,,,,,,,,,,,,,,,,,,,,,,,,,,,,,,
羽咋市立粟ノ保小学校,石川県羽咋市粟生町キ107番地,石川県,羽咋市,36.8809,136.77719,,,,,,,,,,,,,,,,,,,,,,,,,,,,,,,
羽咋市立瑞穂小学校,石川県羽咋市深江町ル61-1,石川県,羽咋市,36.9028,136.80032,,,,,,,,,,,,,,,,,,,,,,,,,,,,,,,
羽咋市立西北台小学校,石川県羽咋市滝町ケ14番地2,石川県,羽咋市,36.93551,136.76247,,,,,,,,,,,,,,,,,,,,,,,,,,,,,,,
羽咋市立邑知小学校,石川県羽咋市飯山町ロ20番地,石川県,羽咋市,36.90026,136.8229,,,,,,,,,,,,,,,,,,,,,,,,,,,,,,,
羽咋市立羽咋中学校,石川県羽咋市中央町キ59番地,石川県,羽咋市,36.89132,136.7758,,,,,,,,,,,,,,,,,,,,,,,,,,,,,,,
羽咋市立邑知中学校,石川県羽咋市飯山町ホ57番地,石川県,羽咋市,36.90484,136.82839,,,,,,,,,,,,,,,,,,,,,,,,,,,,,,,
羽咋市立学校給食共同調理場,石川県羽咋市中央町キ9番地,石川県,羽咋市,36.89283,136.77656,,,,,,,,,,,,,,,,,,,,,,,,,,,,,,,
粟ノ保放課後児童クラブ,石川県羽咋市兵庫町タ56番地1,石川県,羽咋市,36.88234,136.779,,,,,,,,,,,,,,,,,,,,,,,,,,,,,,,
羽咋市立西北台保育所,石川県羽咋市一ノ宮町伊9-3,石川県,羽咋市,36.93702,136.76116,,,,,,,,,,,,,,,,,,,,,,,,,,,,,,,
羽咋市立余喜保育所,石川県羽咋市大町お38番地,石川県,羽咋市,36.93213,136.84634,,,,,,,,,,,,,,,,,,,,,,,,,,,,,,,
邑知保育園,石川県羽咋市飯山町ト8-1番地,石川県,羽咋市,36.90215,136.8248,,,,,,,,,,,,,,,,,,,,,,,,,,,,,,,
こすもす保育園,石川県羽咋市東的場町古川田15-1,石川県,羽咋市,36.89817,136.78697,,,,,,,,,,,,,,,,,,,,,,,,,,,,,,,
とき保育園,石川県羽咋市千路町は10番地,石川県,羽咋市,36.92714,136.80508,,,,,,,,,,,,,,,,,,,,,,,,,,,,,,,
羽咋市立千里浜児童センター,石川県羽咋市千里浜町タ118-2,石川県,羽咋市,36.89201,136.77047,,,,,,,,,,,,,,,,,,,,,,,,,,,,,,,
羽咋放課後児童クラブ,石川県羽咋市中央町サ90番地,石川県,羽咋市,36.89403,136.77516,,,,,,,,,,,,,,,,,,,,,,,,,,,,,,,
瑞穂放課後児童クラブ,石川県羽咋市深江町へ16番地,石川県,羽咋市,36.90058,136.80254,,,,,,,,,,,,,,,,,,,,,,,,,,,,,,,
邑知放課後児童クラブ,石川県羽咋市飯山町リ127番地,石川県,羽咋市,36.90037,136.8265,,,,,,,,,,,,,,,,,,,,,,,,,,,,,,,
羽咋市デイサービスセンター,石川県羽咋市鹿島路町1788番地,石川県,羽咋市,36.93547,136.81247,,,,,,,,,,,,,,,,,,,,,,,,,,,,,,,
羽咋市老人福祉センター,石川県羽咋市鶴多町亀田17番地,石川県,羽咋市,36.89854,136.79379,,,,,,,,,,,,,,,,,,,,,,,,,,,,,,,
羽咋すこやかセンター,石川県羽咋市鶴多町亀田17番地,石川県,羽咋市,36.89854,136.79379,,,,,,,,,,,,,,,,,,,,,,,,,,,,,,,
羽咋市農業参入支援センター,石川県羽咋市千里浜町ワ65番地,石川県,羽咋市,36.88608,136.77252,,,,,,,,,,,,,,,,,,,,,,,,,,,,,,,
はくい地域産業センター,石川県羽咋市飯山町ヲ32,石川県,羽咋市,36.90289,136.82919,,,,,,,,,,,,,,,,,,,,,,,,,,,,,,,
御坊山定住促進住宅,石川県羽咋市御坊山町12番地1,石川県,羽咋市,36.89036,136.78351,,,,,,,,,,,,,,,,,,,,,,,,,,,,,,,
島出定住促進住宅,石川県羽咋市島出町上2番地35,石川県,羽咋市,36.90092,136.76995,,,,,,,,,,,,,,,,,,,,,,,,,,,,,,,
羽咋市駅東駐車場管理棟,石川県羽咋市東川原町チ146-1,石川県,羽咋市,36.89632,136.78423,,,,,,,,,,,,,,,,,,,,,,,,,,,,,,,
道の駅のと千里浜,石川県羽咋市千里浜町タ1番地62,石川県,羽咋市,36.88612,136.76864,,,,,,,,,,,,,,,,,,,,,,,,,,,,,,,
輪島市町野多目的集会施設,石川県輪島市町野町粟蔵川原田22番地1,石川県,輪島市,37.423364,137.08813,0768-32-0001,,machino@city.wajima.lg.jp,,,928-0215,2.00002E+12,輪島市,月・火・水・木・金・土・日曜日、祝日,8:30,21:00,12/29～1/3は休館;施設利用者がいない場合は、平日の17:00以降及び土・日・祝日は施錠,町野支所、町野公民館、輪島市立図書館町野分館が入っている施設,有,無,無,無,スロープ有,無,読上げ支援有,有,無,有,無,無,無,無,有,無,無,
輪島市光浦多目的集会施設,石川県輪島市光浦町29字19番地2,石川県,輪島市,37.405725,136.871504,,,,,,928-0067,2.00002E+12,輪島市,利用休止中,,,利用希望者は、輪島市教育委員会生涯学習課まで,和室2室;調理実習室,無,無,無,無,無,無,無,無,無,無,無,無,無,無,有,無,無,
輪島市剱地多目的集会施設,石川県輪島市門前町剱地ツの60番地,石川県,輪島市,37.231765,136.708716,0768-45-1833,,ko-tsurugiji@po.city.wajima.ishikawa.jp,,,927-2342,2.00002E+12,輪島市,月・火・水・木・金・土・日曜日、祝日,9:00,21:00,12/29～1/3は休館;施設利用者がいない場合は、平日の17:00以降及び土・日・祝日は施錠,剱地公民館が入っている施設,無,無,無,無,無,無,無,有,無,有,無,無,無,無,有,無,無,
輪島市大屋コミュニティセンター,石川県輪島市小伊勢町丸垣内22番地1,石川県,輪島市,37.381135,136.885962,0768-22-2236,,ko-ooya@po.city.wajima.ishikawa.jp,,,928-0032,2.00002E+12,輪島市,月・火・水・木・金・土・日曜日、祝日,9:00,21:30,12/29～1/3は休館;施設利用者がいない場合は、平日の17:00以降及び土・日・祝日は施錠,大屋公民館が入っている施設,有,無,有,有,スロープ有,有,無,有,無,有,有,無,無,無,有,無,無,
輪島市西保コミュニティセンター,石川県輪島市大沢町ホサソ201番地3,石川県,輪島市,37.375175,136.803076,0768-36-2001,,nisiho@city.wajima.lg.jp,,,928-0054,2.00002E+12,輪島市,月・火・水・木・金・土・日曜日、祝日,8:30,21:00,12/29～1/3は休館;施設利用者がいない場合は、平日の17:00以降及び土・日・祝日は施錠,西保出張所、西保公民館、西保診療所が入っている施設,有,無,無,有,スロープ有,有,無,有,無,無,無,無,無,有,有,無,有,
輪島市港コミュニティセンター,石川県輪島市輪島崎町1部211番地4,石川県,輪島市,37.403289,136.89992,0768-22-1391,,ko-minato@po.city.wajima.ishikawa.jp,,,928-0071,2.00002E+12,輪島市,月・火・水・木・金・土・日曜日、祝日,9:00,21:00,12/29～1/3は休館;施設利用者がいない場合は、平日の17:00以降及び土・日・祝日は施錠,港公民館が入っている施設,有,無,無,有,スロープ有,無,読上げ支援有,有,無,有,無,無,無,無,有,無,有,
輪島市黒島コミュニティセンター,石川県輪島市門前町黒島町高池45番地,石川県,輪島市,37.278903,136.735633,0768-43-1062,,ko-kuroshima@po.city.wajima.ishikawa.jp,,,927-2165,2.00002E+12,輪島市,月・火・水・木・金・土・日曜日、祝日,9:00,21:00,12/29～1/3は休館;施設利用者がいない場合は、平日の17:00以降及び土・日・祝日は施錠,黒島公民館が入っている施設,有,無,無,無,スロープ有,無,無,有,無,有,無,無,無,無,有,無,無,
輪島市諸岡コミュニティセンター,石川県輪島市門前町道下7の175番地,石川県,輪島市,37.288403,136.745259,0768-43-1061,,ko-morooka@po.city.wajima.ishikawa.jp,,,927-2164,2.00002E+12,輪島市,月・火・水・木・金・土・日曜日、祝日,9:00,22:00,12/29～1/3は休館;施設利用者がいない場合は、平日の17:00以降及び土・日・祝日は施錠,諸岡公民館が入っている施設,有,無,無,有,スロープ有,無,読上げ支援有,有,無,有,無,無,無,無,有,無,無,
輪島市七浦コミュニティセンター,石川県輪島市門前町鵜山12の50番地,石川県,輪島市,37.345281,136.752807,0768-46-2375,,ko-shitsura@po.city.wajima.ishikawa.jp,,,927-2281,2.00002E+12,輪島市,月・火・水・木・金・土・日曜日、祝日,9:00,22:00,月曜日は17:00まで;12/29～1/3は休館;施設利用者がいない場合は、平日の17:00以降及び土・日・祝日は施錠,七浦公民館が入っている施設,有,無,無,無,無,無,無,有,無,有,無,無,無,無,有,無,有,
輪島市三井基幹集落センター,石川県輪島市三井町長沢2字12番地1,石川県,輪島市,37.315386,136.902599,0768-26-1211,,mii@city.wajima.lg.jp,,,929-2379,2.00002E+12,輪島市,月・火・水・木・金・土・日曜日、祝日,8:30,21:00,12/29～1/3は休館;施設利用者がいない場合は、平日の17:15以降及び土・日・祝日は施錠,三井出張所、三井公民館が入っている施設,有,無,無,無,スロープ有,無,無,有,無,無,無,無,無,無,有,無,有,
輪島市七浦基幹集落センター,石川県輪島市門前町餅田9の16番地2,石川県,輪島市,37.346882,136.755631,,,,,,927-2277,2.00002E+12,輪島市,通常は施錠、必要時のみ開錠。,,,餅田地区住民が管理（通常時は閉館）,餅田地区住民以外の方で施設を利用したい方は、輪島市地域振興課へ連絡してください,無,無,無,無,無,無,無,有,無,無,無,無,無,無,有,無,無,
輪島市農村環境改善センター,石川県輪島市里町32字36番地,石川県,輪島市,37.430261,137.034125,0768-34-1001,,najimi@city.wajima.lg.jp,,,928-0246,2.00002E+12,輪島市,月・火・水・木・金・土・日曜日、祝日,8:30,21:30,12/29～1/3は休館;施設利用者がいない場合は、平日の17:00以降及び土・日・祝日は施錠,南志見出張所、南志見公民館が入っている施設,有,有,無,有,スロープ有,無,読上げ支援有,有,無,有,有,無,無,無,有,無,有,
輪島市立中央公民館,石川県輪島市二ツ屋町2字29番地,石川県,輪島市,37.390277,136.899122,0768-23-1176,,shougai@city.wajima.lg.jp,,,928-0001,2.00002E+12,輪島市,月・火・水・木・金曜日,8:30,17:15,12/29～1/3は休館;平日の17:15以降及び土・日・祝日は施錠,輪島市教育委員会生涯学習課が中央公民館を兼ねており、各公民館を束ねる立場にあります,有,有,無,有,エレベータ有,無,無,有,無,有,有,有,無,無,有,無,有,
輪島市立輪島公民館,石川県輪島市河井町20部1番地1,石川県,輪島市,37.388742,136.905952,0768-22-2226,,ko-wajima@po.city.wajima.ishikawa.jp,,,928-0001,2.00002E+12,輪島市,月・火・水・木・金・土・日曜日、祝日,9:00,21:30,12/29～1/3は休館;施設利用者がいない場合は、平日の17:00以降及び土・日・祝日は施錠,河井地区（河井町;二勢町;宮川町;マリンタウン）住民の公民館,有,有,無,有(故障中),スロープ有;エレベータ有,有,無,有,無,有,有,無,無,無,無,無,有,
輪島市立大屋公民館,石川県輪島市小伊勢町丸垣内22番地1,石川県,輪島市,37.381135,136.885962,0768-22-2236,,ko-ooya@po.city.wajima.ishikawa.jp,,,928-0032,2.00002E+12,輪島市,月・火・水・木・金・土・日曜日、祝日,9:00,21:30,12/29～1/3は休館;施設利用者がいない場合は、平日の17:00以降及び土・日・祝日は施錠,大屋地区（小伊勢町;稲屋町;長井町;房田町;山本町;中段町;水守町;釜屋谷町;堀町;二ツ屋町;宅田町;下黒川町;上黒川町;二俣町;縄又町;別所谷町;滝又町;空熊町;光浦町;美谷町;鵜入町;気勝平町）住民の公民館,有,無,有,有,スロープ有,有,無,有,無,有,有,無,無,無,有,無,無,
輪島市立河原田公民館,石川県輪島市西脇町60番地1,石川県,輪島市,37.357179,136.908381,0768-22-2235,,ko-kawarada@po.city.wajima.ishikawa.jp,,,928-0026,2.00002E+12,輪島市,月・火・水・木・金・土・日曜日、祝日,9:00,22:00,12/29～1/3は休館;施設利用者がいない場合は、平日の17:00以降及び土・日・祝日は施錠,河原田地区（山岸町;杉平町;横地町;石休場町;東中尾町;西脇町;北谷町;山ノ上町;市ノ瀬町;熊野町;打越町;方南町）住民の公民館,有,無,無,有,スロープ有,無,無,有,無,有,有,無,無,無,有,無,有,
輪島市立鵠巣公民館,石川県輪島市大野町菰沢35番地,石川県,輪島市,37.397565,136.933569,0768-22-2237,,ko-kounosu@po.city.wajima.ishikawa.jp,,,928-0005,2.00002E+12,輪島市,月・火・水・木・金・土・日曜日、祝日,9:00,22:00,12/29～1/3は休館;施設利用者がいない場合は、平日の17:00以降及び土・日・祝日は施錠,鵠巣地区（塚田町;久手川町;稲舟町;大野町;惣領町;深見町;城兼町）住民の公民館,有,無,無,有,スロープ有,有,無,有,無,有,無,無,無,無,有,無,有,
輪島市立西保公民館,石川県輪島市大沢町ホサソ201番地3,石川県,輪島市,37.375175,136.803076,0768-36-2001,,ko-nishiho@po.city.wajima.ishikawa.jp,,,928-0054,2.00002E+12,輪島市,月・火・水・木・金・土・日曜日、祝日,8:30,21:00,12/29～1/3は休館;施設利用者がいない場合は、平日の17:00以降及び土・日・祝日は施錠,西保地区（上山町;西二又町;上大沢町;大沢町;赤崎町;下山町;小池町）住民の公民館,有,無,無,有,スロープ有,有,無,有,無,無,無,無,無,有,有,無,有,
輪島市立三井公民館,石川県輪島市三井町長沢2字12番地1,石川県,輪島市,37.315386,136.902599,0768-26-1211,,ko-mii@po.city.wajima.ishikawa.jp,,,929-2379,2.00002E+12,輪島市,月・火・水・木・金・土・日曜日、祝日,8:30,21:00,12/29～1/3は休館;施設利用者がいない場合は、平日の17:15以降及び土・日・祝日は施錠,三井地区（三井町全域;大和町）住民の公民館,有,無,無,無,スロープ有,無,無,有,無,無,無,無,無,無,有,無,有,
輪島市立南志見公民館,石川県輪島市里町32字36番地,石川県,輪島市,37.430261,137.034125,0768-34-1001,,ko-najimi@po.city.wajima.ishikawa.jp,,,928-0246,2.00002E+12,輪島市,月・火・水・木・金・土・日曜日、祝日,9:00,21:30,12/29～1/3は休館;施設利用者がいない場合は、平日の17:00以降及び土・日・祝日は施錠,南志見地区（白米町;野田町;名舟町;尊利地町;小田屋町;里町;渋田町;西院内町;東印内町;忍町;東山町;小西山町;大西山町）住民の公民館,有,有,無,有,スロープ有,無,読上げ支援有,有,無,有,有,無,無,無,有,無,有,
輪島市立町野公民館,石川県輪島市町野町粟蔵川原田22番地1,石川県,輪島市,37.423364,137.08813,0768-32-0001,,ko-macino@po.city.wajima.ishikawa.jp,,,928-0215,2.00002E+12,輪島市,月・火・水・木・金・土・日曜日、祝日,8:30,21:00,12/29～1/3は休館;施設利用者がいない場合は、平日の17:00以降及び土・日・祝日は施錠,町野地区（町野町全域）住民の公民館,有,無,無,無,スロープ有,無,読上げ支援有,有,無,有,無,無,無,無,有,無,無,
輪島市立港公民館,石川県輪島市輪島崎町1部211番地4,石川県,輪島市,37.403289,136.89992,0768-22-1391,,ko-minato@po.city.wajima.ishikawa.jp,,,928-0071,2.00002E+12,輪島市,月・火・水・木・金・土・日曜日、祝日,9:00,21:00,12/29～1/3は休館;施設利用者がいない場合は、平日の17:00以降及び土・日・祝日は施錠,輪島崎地区（輪島崎町）住民の公民館,有,無,無,有,スロープ有,無,読上げ支援有,有,無,有,無,無,無,無,有,無,有,
輪島市立鳳至公民館,石川県輪島市鳳至町石浦町83番地1,石川県,輪島市,37.398486,136.896899,0768-22-7620,,ko-fugeshi@po.city.wajima.ishikawa.jp,,,928-0076,2.00002E+12,輪島市,月・火・水・木・金・土・日曜日、祝日,9:00,21:30,月曜日は17:00まで;12/29～1/3は休館;施設利用者がいない場合は、平日の17:00以降及び土・日・祝日は施錠,鳳至地区（鳳至町全域;平成町;上野台;堀町の一部［南町;夕陽ケ丘］）住民の公民館,有,有,無,有,スロープ有,無,無,有,無,有,無,無,無,無,有,無,有,
輪島市立剱地公民館,石川県輪島市門前町剱地ツの60番地,石川県,輪島市,37.231765,136.708716,0768-45-1833,,ko-tsurugiji@po.city.wajima.ishikawa.jp,,,927-2342,2.00002E+12,輪島市,月・火・水・木・金・土・日曜日、祝日,9:00,21:00,12/29～1/3は休館;施設利用者がいない場合は、平日の17:00以降及び土・日・祝日は施,剱地地区（門前町剱地;大泊;腰細;赤神;馬場;上代;黒岩;入山;渡瀬;飯川谷;切挟;清沢;滝町;馬渡;久川;窕;神明原;木原月;大釜）住民の公民館,無,無,無,無,無,無,無,有,無,有,無,無,無,無,有,無,無,
輪島市立阿岸公民館,石川県輪島市門前町南ナの17番地,石川県,輪島市,37.255435,136.733154,0768-43-1063,,ko-agishi@po.city.wajima.ishikawa.jp,,,927-2365,2.00002E+12,輪島市,月・火・水・木・金・土・日曜日、祝日,9:00,22:00,12/29～1/3は休館;施設利用者がいない場合は、平日の17:00以降及び土・日・祝日は施,阿岸地区（門前町藤浜;池田;南;是清;北川;千代;中田;鍛冶屋;新町分;椎木;小山;大切;白禿;江崎;二又;山是清）住民の公民館,有,無,無,有,スロープ有,無,読上げ支援有,有,無,有,無,無,無,無,有,無,有,
輪島市立黒島公民館,石川県輪島市門前町黒島町高池45番地,石川県,輪島市,37.278903,136.735633,0768-43-1062,,ko-kuroshima@po.city.wajima.ishikawa.jp,,,927-2165,2.00002E+12,輪島市,月・火・水・木・金・土・日曜日、祝日,9:00,21:00,12/29～1/3は休館;施設利用者がいない場合は、平日の17:00以降及び土・日・祝日は施錠,黒島地区（門前町黒島町）住民の公民館,有,無,無,無,スロープ有,無,無,有,無,有,無,無,無,無,有,無,無,
輪島市立諸岡公民館,石川県輪島市門前町道下7の175番地,石川県,輪島市,37.288403,136.745259,0768-43-1061,,ko-morooka@po.city.wajima.ishikawa.jp,,,927-2164,2.00002E+12,輪島市,月・火・水・木・金・土・日曜日、祝日,9:00,22:00,12/29～1/3は休館;施設利用者がいない場合は、平日の17:00以降及び土・日・祝日は施錠,諸岡地区（門前町道下;鹿磯;深見;六郎木;勝田;大生）住民の公民館,有,無,無,有,スロープ有,無,読上げ支援有,有,無,有,無,無,無,無,有,無,無,
輪島市立門前公民館,石川県輪島市門前町走出6の92番地2,石川県,輪島市,37.287798,136.767771,0768-42-0916,,ko-monzen@po.city.wajima.ishikawa.jp,,,927-2151,2.00002E+12,輪島市,月・火・水・木・金・土・日曜日、祝日,9:00,22:00,12/29～1/3は休館;施設利用者がいない場合は、平日の17:00以降及び土・日・祝日は施錠,門前地区（門前町門前;清水;走出;和田;高根尾;本市;栃木;深田;広瀬;日野尾;舘;広岡;鬼屋;西中尾;小滝;猿橋;上河内;小石;風原）住民の公民館,有,有,無,無,スロープ有;エレベータ有,有,無,有,無,無,有,無,無,有,有,無,有,
輪島市立本郷公民館,石川県輪島市門前町二又川4の4番地1,石川県,輪島市,37.284836,136.826646,0768-42-0636,,ko-hongou@po.city.wajima.ishikawa.jp,,,927-2127,2.00002E+12,輪島市,月・火・水・木・金・土・日曜日、祝日,9:00,22:00,12/29～1/3及び館内整理日は休館;施設利用者がいない場合は、平日の17:00以降及び土・日・祝日は施錠,本郷地区（門前町貝吹;原;長井坂;荒屋;定広;地原;東大町;別所;堀腰;平;二又川;鑓川;内保;本内;谷口;能納屋;俊兼;四位;滝上;百成）住民の公民館,有,無,無,有,スロープ有,無,無,有,無,有,無,無,無,無,有,無,有,
輪島市立浦上公民館,石川県輪島市門前町浦上8の58番地,石川県,輪島市,37.305769,136.797614,0768-42-0558,,ko-urakami@po.city.wajima.ishikawa.jp,,,927-2102,2.00002E+12,輪島市,月・火・水・木・金・土・日曜日、祝日,9:00,22:00,12/29～1/3は休館;施設利用者がいない場合は、平日の17:00以降及び土・日・祝日は施錠,浦上地区（門前町西円山;宮古場;浦上;田村;山辺;浅生田;安代原;中野屋）住民の公民館,有,無,無,有,スロープ有,無,無,有,無,有,無,無,無,無,有,無,無,
輪島市立七浦公民館,石川県輪島市門前町鵜山12の50番地,石川県,輪島市,37.345281,136.752807,0768-46-2375,,ko-shitsura@po.city.wajima.ishikawa.jp,,,927-2281,2.00002E+12,輪島市,月・火・水・木・金・土・日曜日、祝日,9:00,22:00,月曜日は17:00まで;12/29～1/3は休館;施設利用者がいない場合は、平日の17:00以降及び土・日・祝日は施錠,七浦地区（門前町皆月;五十洲;吉浦;矢徳;中谷内;大滝;鵜山;餅田;百成大角間;井守上坂;薄野;暮坂;樽見）住民の公民館,有,無,無,無,無,無,無,有,無,有,無,無,無,無,有,無,有,
馬場崎交流サロン 語馬処,石川県輪島市河井町3部171番地3,石川県,輪島市,37.392259,136.905166,0768-23-0212,,,,,928-0001,2.00002E+12,輪島市,月・火・水・木・金・土・日曜日、祝日,9:00,17:00,1階は9:00～17:00、2階は9:00～22:00（※要予約）;休館日はお盆、年末年始,市民と観光客等の相互交流及び情報交換を目的とした「交流サロン」,有,無,無,有,スロープ有,無,無,有,無,有,無,無,無,有,有,無,有,https://www.city.wajima.ishikawa.jp/docs/2021061100018/
わいち交流サロン どっこら処,石川県輪島市河井町4部45番地2,石川県,輪島市,37.395133,136.904834,,,,,,928-0001,2.00002E+12,輪島市,月・火・水・木・金・土・日曜日、祝日,8:00,18:00,1階は8:00～18:00(冬季は8:00～17:00)、2階は8:00～21:00（※要予約）,市民と観光客等の相互交流及び情報交換を目的とした「交流サロン」,有,無,無,有,スロープ有,無,無,有,無,無,無,無,無,無,有,無,有,https://www.city.wajima.ishikawa.jp/docs/2021061100018/
交流サロン 千舟蔵,石川県輪島市鳳至町上町86番地1,石川県,輪島市,37.396227,136.897595,0768-22-9633,,makie9633@gmail.com,,,928-0077,2.00002E+12,輪島市,月・火・水・木・金曜日,13:30,16:30,1階は13:30～16:30、2階は利用時間要予約;休館日は祝日、年末年始,市民と観光客等の相互交流及び情報交換を目的とした「交流サロン」,無,無,無,無,スロープ有,無,無,有,無,有,無,無,無,無,有,無,有,https://www.city.wajima.ishikawa.jp/docs/2021061100018/
輪島市女性センター,石川県輪島市鳳至町石浦町83番地1,石川県,輪島市,37.398486,136.896899,0768-22-7620,,ko-fugeshi@po.city.wajima.ishikawa.jp,,,928-0076,2.00002E+12,輪島市,火・水・木・金・土・日曜日,9:00,21:00,月曜日、祝日、12/29～1/3は休館;施設利用者がいない場合、平日の17:00以降及び土・日曜日は施錠,講習室、軽運動室、調理実習室、談話室があり、料金は条例にて規定;鳳至公民館として利用する場合は利用規定（利用可能日・利用可能時間・料金等）が異なります,有,有,無,有,スロープ有,無,無,有,無,有,無,無,無,無,有,無,有,
観音町地域交流センター（観音町修養館）,石川県輪島市河井町5部265番地甲・乙,石川県,輪島市,37.394208,136.907977,0768-23-1156,,,,,928-0001,2.00002E+12,輪島市,月・火・水・木・金・土・日曜日、祝日,0:00,23:59,利用する際は鍵を管理している地元町内会への連絡が必要です,大正～昭和にかけて遊郭として営業していた花街の様相を今日に残す市の景観重要建造物;現在は、地域住民による交流センターとして活用しています,無,無,無,有,無,有,無,無,無,無,無,無,無,無,有,無,無,
市ノ坂地域交流センター,石川県輪島市三井町市ノ坂150番地,石川県,輪島市,37.294496,136.895483,,,kankyou@city.wajima.lg.jp,,,929-2373,2.00002E+12,輪島市,通常は施錠、必要時のみ開錠。,,,地域住民が、事前に予約をして利用,,有,無,無,無,無,無,無,無,無,無,無,無,無,無,無,無,有,
輪島市阿岸コンベンションホール,石川県輪島市門前町南ナの17番地,石川県,輪島市,37.255435,136.733154,0768-43-1063,,ko-agishi@po.city.wajima.ishikawa.jp,,,927-2365,2.00002E+12,輪島市,月・火・水・木・金・土・日曜日、祝日,9:00,22:00,12/29～1/3は休館;施設利用者がいない場合は、平日の17:00以降及び土・日・祝日は施錠,会議室、実習室、集会室があり、条例に規定する事業に使用する際は利用無料（ただし、冷暖房利用料金のみ徴収）;阿岸公民館として利用,有,無,無,有,スロープ有,無,読上げ支援有,有,無,有,無,無,無,無,有,無,有,
輪島市あすなろ交流館,石川県輪島市門前町浦上8の58番地,石川県,輪島市,37.305769,136.797614,0768-42-0558,,ko-urakami@po.city.wajima.ishikawa.jp,,,927-2102,2.00002E+12,輪島市,月・火・水・木・金・土・日曜日、祝日,9:00,22:00,12/29～1/3は休館;施設利用者がいない場合は、平日の17:00以降及び土・日・祝日は施錠,門前町浦上で発見された1900万年前のワニの足跡化石のレプリカを設置しています,有,無,無,有,スロープ有,無,無,有,無,有,無,無,無,無,有,無,無,
舳倉島開発総合センター,石川県輪島市海士町所属舳倉島出邑山1番4,石川県,輪島市,37.85056,136.918113,0768-23-1113,,,,,928-0072,2.00002E+12,輪島市,月・火・水・木・金・土・日曜日、祝日,8:30,21:00,センターの利用は、事前に輪島市企画振興部企画課へ「舳倉島開発総合センター使用許可申請書」を提出し、同許可決定通知書を受けた者に限ります,,無,無,無,無,無,無,無,一部有,無,一部有,無,無,無,無,有,無,有,
三井地区交流広場,石川県輪島市三井町長沢1-20-2,石川県,輪島市,37.315017,136.901606,,,kanri@city.wajima.lg.jp,,,929-2379,2.00002E+12,輪島市,月・火・水・木・金・土・日曜日、祝日,0:00,23:59,終日利用可能;ただし、休憩室は三井地区で管理している,,有,無,無,有,無,無,無,有,無,無,無,無,無,無,有,無,無,
青葉ケ丘住宅 集会所,石川県輪島市河井町7部10番地2,石川県,輪島市,37.391992,136.913567,0768-23-1156,,,,,928-0001,2.00002E+12,輪島市,月・火・水・木・金・土・日曜日、祝日,0:00,23:59,利用する際は鍵を管理している地元町内会への連絡が必要です,青葉ケ丘住宅の住民のための集会所,無,無,無,無,無,無,無,無,無,無,有,無,無,無,有,無,無,
久手川住宅 集会所,石川県輪島市久手川町石田144番地,石川県,輪島市,37.389236,136.923529,0768-23-1156,,,,,928-0002,2.00002E+12,輪島市,月・火・水・木・金・土・日曜日、祝日,0:00,23:59,利用する際は鍵を管理している地元町内会への連絡が必要です,久手川住宅の住民のための集会所,無,無,無,無,無,無,無,無,無,無,有,無,無,無,有,無,無,
東山地区集会所,石川県輪島市東山町ニ-6,石川県,輪島市,37.405138,137.032174,,,kanri@city.wajima.lg.jp,,,928-0245,2.00002E+12,輪島市,月・火・水・木・金・土・日曜日、祝日,0:00,23:59,利用の際は区長の許可が必要,,無,無,無,無,無,無,無,有,無,無,無,無,無,無,有,無,無,
広岡住宅 集会所,石川県輪島市門前町広岡7の1番地,石川県,輪島市,37.283535,136.762419,,,,,,927-2174,2.00002E+12,輪島市,月・火・水・木・金・土・日曜日、祝日,0:00,23:59,利用する際は鍵を管理している地元町内会への連絡が必要です,広岡住宅の住民のための集会所,無,無,無,無,無,無,無,無,無,無,無,無,無,無,有,無,無,
馬渡地区集会所,石川県輪島市門前町馬渡11の64番地,石川県,輪島市,37.217076,136.737132,,,,,,927-2324,2.00002E+12,輪島市,施設老朽化のため、閉鎖中。,,,現在、利用休止中,,無,無,無,無,無,無,無,有,無,無,無,無,無,無,有,無,無,
地原地区集会所,石川県輪島市門前町地原92番地,石川県,輪島市,37.270324,136.843259,,,,,,927-2134,2.00002E+12,輪島市,通常は施錠、必要時のみ開錠。,,,地原地区住民が管理（通常時は閉館）,地原地区住民以外の方で施設を利用したい方は、輪島市地域振興課へ連絡してください,無,無,無,無,無,無,無,有,無,無,無,無,無,無,有,無,無,
輪島市文化会館,石川県輪島市河井町20部1番地1,石川県,輪島市,37.388742,136.905952,0768-22-7666,,bunka@city.wajima.lg.jp,,,928-0001,2.00002E+12,輪島市,火・水・木・金・土・日曜日、祝日,9:00,22:00,毎週月曜日、12/29～1/3は休館;施設管理の関係で臨時休館あり,"大ホール（1,196席）;ホワイエ（世界最長の漆パネル「潮の奏」あり）;展示室;楽屋×3;練習室×3;駐車場（96台収容）;館内には輪島市教育委員会・輪島商工会議所・ロータリークラブ・青年会議所・商店連盟・生命保険会社等入居",有,有（２台）,無,有,スロープ有;エレベータ有,有,無,有,無,無,有,有,無,無,無,無,無,https://www.city.wajima.ishikawa.jp/docs/2013030700015/
輪島市門前会館,石川県輪島市門前町走出6の92番地2,石川県,輪島市,37.287798,136.767771,0768-42-0916,,ko-monzen@po.city.wajima.ishikawa.jp,,,927-2151,2.00002E+12,輪島市,火・水・木・金・土・日曜日、祝日,9:00,22:00,月曜日及び12/29～1/3は休館;施設利用者がいない場合は、平日の17:00以降及び土・日・祝日は施錠,101会議室、102会議室、調理実習室、201会議室、202会議室、和室、大集会室があり、料金は条例にて規定;門前公民館として利用する場合は利用規定（利用可能日・利用可能時間・料金等）が異なります,有,有,無,無,スロープ有;エレベータ有,有,無,有,無,無,有,無,無,有,有,無,有,
輪島市立図書館,石川県輪島市河井町20部1番地1,石川県,輪島市,37.388742,136.905952,0768-22-2926,,lib@city.wajima.lg.jp,,,928-0001,2.00002E+12,輪島市,火・水・木・金・土・日曜日、祝日,9:30,18:00,火～金曜日は9:30～18:00、土・日・祝日は9:30～17:00開館;月曜、第4木曜、年末年始、蔵書点検期間は休館,複写サービス;インターネット検索;新聞雑誌閲覧;DVD視聴;学習室利用;web予約;電子図書館,有,有,無,有,スロープ有,有,読上げ支援有,有,無,有,有,無,無,無,無,有,有,https://www.city.wajima.ishikawa.jp/docs/lib/
輪島市立門前図書館,石川県輪島市門前町走出2の2番地,石川県,輪島市,37.288457,136.76936,0768-42-0129,,mlib@city.wajima.lg.jp,,,927-2151,2.00002E+12,輪島市,火・水・木・金・土・日曜日、祝日,9:30,18:00,火～金曜日は9:30～18:00、土・日・祝日は9:30～17:00開館;月曜、第4木曜、年末年始、蔵書点検期間は休館,複写サービス;インターネット検索;新聞雑誌閲覧;DVD視聴;学習室利用;ラジオ体操(毎日);web予約;電子図書館,有,有,無,有,無,有,無,有,無,有,有,無,無,有,無,無,有,https://www.city.wajima.ishikawa.jp/docs/lib/
輪島市立図書館 町野分館,石川県輪島市町野町粟蔵川原田22番地1,石川県,輪島市,37.423364,137.08813,0768-32-0316,,,,,928-0215,2.00002E+12,輪島市,火・水・木・金・土曜日,9:30,17:00,火～金曜日は9:30～17:00、土曜日は13:00～17:00開館;日曜、月曜、祝日、年末年始は休館,新聞雑誌閲覧;web予約;電子図書館,有,無,無,無,スロープ有,無,無,有,無,有,無,無,無,無,無,無,有,https://www.city.wajima.ishikawa.jp/docs/lib/
石川県輪島漆芸美術館,石川県輪島市水守町四十苅11番地,石川県,輪島市,37.3898,136.891931,0768-22-9788,,urushiart@titan.ocn.ne.jp,https://www.art.city.wajima.ishikawa.jp/contact/,https://ja-jp.facebook.com/urushiart/,928-0063,2.00002E+12,輪島市,月・火・水・木・金・土・日曜日、祝日,9:00,17:00,12/29～12/31、展示替え期間は休館;最終入館は16:30まで,常時全室で漆芸品を展示している、全国的にも珍しい漆芸専門の美術館です;四季折々の展覧会のほか、輪島塗の歴史と文化を常時ご紹介しています,有,有（２台）,無,有,エレベータ有,有,無,有,無,無,有,有,無,無,無,無,無,https://www.art.city.wajima.ishikawa.jp/
一本松総合運動公園体育館 サン・アリーナ,石川県輪島市杉平町1字12番地,石川県,輪島市,37.387464,136.913939,0768-23-0101,,,https://mqhb.f.msgs.jp/webapp/form/22736_mqhb_1/index.do?f_code=mss-7460&f_name=%E8%BC%AA%E5%B3%B6%E5%B8%82%E4%BD%93%E8%82%B2%E6%96%BD%E8%A8%AD,,928-0011,2.00002E+12,輪島市,月・火・水・木・金・土・日曜日、祝日,9:00,21:30,月～金曜日・祝日は9:00～21:30、土曜日は9:00～19:00、日曜日は9:00～17:30;毎月第1・第3水曜日、12/29～1/1は休館,"バレーボール2面;バスケットボール2面;バドミントン8面;卓球8台;フットサル2面;トランポリン4台;ソフトテニス2面;テニス2面;ランニングコース;ミーティングルーム;健康相談室;トレーニングルーム;託児所;観覧席1,208席",有,有,無,有,スロープ有,有,無,有,無,有,有,無,無,無,有,無,無,https://shisetsu.mizuno.jp/mss-7460
一本松総合運動公園市民温水プール サン・プルル,石川県輪島市杉平町1字12番地,石川県,輪島市,37.386722,136.914099,0768-23-0101,,,https://mqhb.f.msgs.jp/webapp/form/22736_mqhb_1/index.do?f_code=mss-7460&f_name=%E8%BC%AA%E5%B3%B6%E5%B8%82%E4%BD%93%E8%82%B2%E6%96%BD%E8%A8%AD,,928-0011,2.00002E+12,輪島市,月・火・水・木・金・土・日曜日、祝日,10:00,20:30,月～金曜日は10:00～20:30、土曜日・祝日は10:00～18:30、日曜日は10:00～17:00;毎月第1・第3水曜日、12/29～1/1は休館,25m×7コース;幼児用プール;軽運動室,有,有,無,有,スロープ有,無,無,有,無,有,有,無,無,無,有,無,無,https://shisetsu.mizuno.jp/mss-7460
輪島市一本松ゲートボール場,石川県輪島市河井町9部30番地,石川県,輪島市,37.391225,136.911888,0768-23-1176,,shougai@city.wajima.lg.jp,,,928-0001,2.00002E+12,輪島市,月・火・水・木・金・土・日曜日、祝日,7:00,17:30,利用開始及び終了時刻は、実際には日の出から日没まで;12/29～1/3は利用休止,利用希望者は、輪島市教育委員会生涯学習課まで,無,無,無,無,無,無,無,有,無,無,無,無,無,無,有,無,有,https://www.city.wajima.ishikawa.jp/shougai/wajimasports/establish/ipponmatu_gateball.html
輪島市鳳至体育センター,石川県輪島市鳳至町石浦町83番地1,石川県,輪島市,37.398486,136.896899,0768-22-7620,,ko-fugeshi@po.city.wajima.ishikawa.jp,,,928-0076,2.00002E+12,輪島市,月・火・水・木・金・土・日曜日、祝日,9:00,21:30,月曜日は17:00まで;12/29～1/3は休館;施設利用者がいない場合、平日の17:00以降及び土・日・祝日は施錠,体育館があり、料金は条例にて規定;鳳至公民館として利用する場合は利用規定（利用料金等）が異なります,無,無,無,有,スロープ有,無,無,有,無,有,無,無,無,無,無,無,無,
輪島市総合体育館,石川県輪島市稲舟町歌波93番地,石川県,輪島市,37.39332,136.918874,0768-22-5071,,,,,928-0004,2.00002E+12,輪島市,月・火・水・木・金・土・日曜日、祝日,9:00,21:30,12/29～1/3は休館,バレーボール2面;バスケットボール2面;バドミントン6面;観覧席350席,無,無,無,無,無,無,無,有,無,無,無,無,無,無,有,無,有,https://www.city.wajima.ishikawa.jp/shougai/wajimasports/establish/wajima_staikukan.html
輪島市輪島野球場,石川県輪島市稲舟町歌波30番地2,石川県,輪島市,37.39289,136.920612,0768-22-5071,,,,,928-0004,2.00002E+12,輪島市,月・火・水・木・金・土・日曜日、祝日,7:00,21:30,利用開始及び終了時刻は、実際には日の出から21:30まで;12/29～1/3は利用休止,両翼90m;中堅115m;観覧席・夜間照明あり,無,無,無,無,無,無,無,有,無,無,無,無,無,無,有,無,有,https://www.city.wajima.ishikawa.jp/shougai/wajimasports/establish/wajima_baseballfield.html
輪島市輪島武道館,石川県輪島市稲舟町上野50番地,石川県,輪島市,37.39144,136.920198,,,,,,928-0004,2.00002E+12,輪島市,月・火・水・木・金・土・日曜日、祝日,9:00,21:30,12/29～1/3は休館,柔剣道場1室,無,無,無,無,無,無,無,無,無,無,無,無,無,無,無,無,無,
輪島市マリンタウン競技場,石川県輪島市マリンタウン3番1,石川県,輪島市,37.395613,136.907887,0768-22-0350,,,,,928-0008,2.00002E+12,輪島市,月・火・水・木・金・土・日曜日、祝日,7:00,21:00,利用開始及び終了時刻は、実際には日の出から21:00まで;12/29～1/3及び積雪時は利用休止,全天候型400mトラック;サッカー1面（人工芝）;グラウンドゴルフ場1面;夜間照明あり,有,無,無,有,スロープ有,有,無,有,無,無,有,無,無,無,有,無,有,
輪島市三井スキー場　管理棟,石川県輪島市三井町漆原字前田池35番地,石川県,輪島市,37.310658,136.901472,0768-23-1176,,shougai@city.wajima.lg.jp,,,929-2377,2.00002E+12,輪島市,月・火・水・木・金・土・日曜日、祝日,7:00,21:30,4/1～11/30は利用休止;積雪量及び天候に応じて休止の場合あり,コース1面（最大滑走距離50m、最大斜度12度）;シュレップリフト1台;休憩小屋・夜間照明あり,無,無,無,無,無,無,無,無,無,無,無,無,無,無,無,無,無,https://www.city.wajima.ishikawa.jp/shougai/wajimasports/establish/mii_ski.html
輪島市ソフトボール場,石川県輪島市三井町漆原丑1番地,石川県,輪島市,37.299763,136.927414,0768-23-1176,,shougai@city.wajima.lg.jp,,,929-2377,2.00002E+12,輪島市,月・火・水・木・金・土・日曜日、祝日,7:00,17:30,利用開始及び終了時刻は、実際には日の出から日没まで;12/29～1/3及び積雪時は利用休止,運動広場;ソフトボール4面,無,無,無,無,無,無,無,有,無,無,無,無,無,無,有,無,有,https://www.city.wajima.ishikawa.jp/shougai/wajimasports/establish/wajima_softball.html
輪島市町野テニスコート,石川県輪島市町野町東大野出村109番地,石川県,輪島市,37.439601,137.078723,0768-32-1040,,machino-sc@bz04.plala.or.jp,https://machino-sc.wixsite.com/machino-top/form,https://www.facebook.com/machinosportsclub,928-0233,2.00002E+12,輪島市,月・火・水・木・金・土・日曜日、祝日,7:00,21:00,利用開始及び終了時刻は、実際には日の出から21:00まで;12/29～1/3は利用休止,全天候型テニスコート4面;夜間照明あり,無,無,無,有,無,無,無,有,無,有,有,有,無,有,無,無,無,https://www.city.wajima.ishikawa.jp/shougai/wajimasports/establish/matino_tennis.html
石川県輪島水泳プール（輪島市町野水泳プール）,石川県輪島市町野町東大野出村109番地,石川県,輪島市,37.439037,137.078664,0768-32-1040,,machino-sc@bz04.plala.or.jp,https://machino-sc.wixsite.com/machino-top/form,https://www.facebook.com/machinosportsclub,928-0233,2.00002E+12,輪島市,月・火・水・木・金・土・日曜日、祝日,9:00,18:30,7/中旬～8/31の間利用可能;月曜日は休みだが、海の日は営業,25m×6コース;50m×8コース;水球競技可,無,無,無,有,無,無,無,無,無,有,有,有,無,有,無,無,有,https://www.city.wajima.ishikawa.jp/shougai/wajimasports/establish/wajima_pool.html
輪島市町野野球場,石川県輪島市町野町東大野出村60番地,石川県,輪島市,37.439518,137.077382,0768-32-1040,,machino-sc@bz04.plala.or.jp,https://machino-sc.wixsite.com/machino-top/form,https://www.facebook.com/machinosportsclub,928-0233,2.00002E+12,輪島市,月・火・水・木・金・土・日曜日、祝日,7:00,17:30,利用開始及び終了時刻は、実際には日の出から日没まで;12/29～1/3は利用休止,両翼90m;中堅116m;地域の緊急避難場所にもなっています,有,無,無,有,無,無,無,無,無,有,有,有,無,有,無,無,無,https://www.city.wajima.ishikawa.jp/shougai/wajimasports/establish/matino_baseballfield.html
輪島市町野ゲートボール場,石川県輪島市町野町東大野出村103番地1,石川県,輪島市,37.439495,137.078224,0768-32-1040,,machino-sc@bz04.plala.or.jp,https://machino-sc.wixsite.com/machino-top/form,https://www.facebook.com/machinosportsclub,928-0233,2.00002E+12,輪島市,月・火・水・木・金・土・日曜日、祝日,7:00,17:30,利用開始及び終了時刻は、実際には日の出から日没まで;12/29～1/3は利用休止,ゲートボール3面,無,無,無,有,無,無,無,有,無,有,有,有,無,有,有,無,有,https://www.city.wajima.ishikawa.jp/shougai/wajimasports/establish/matino_gateball.html
輪島市町野グラウンドゴルフ場,石川県輪島市町野町東大野出村91番地1,石川県,輪島市,37.438323,137.077864,0768-32-1040,,machino-sc@bz04.plala.or.jp,https://machino-sc.wixsite.com/machino-top/form,https://www.facebook.com/machinosportsclub,928-0233,2.00002E+12,輪島市,月・火・水・木・金・土・日曜日、祝日,7:00,17:30,利用開始及び終了時刻は、実際には日の出から日没まで;12/29～1/3は利用休止,8ホール;2コース,無,無,無,有,無,無,無,有,無,有,有,有,無,有,無,無,無,https://www.city.wajima.ishikawa.jp/shougai/wajimasports/establish/matino_grandgolf.html
南志見多目的グラウンド,石川県輪島市里町32部20番地,石川県,輪島市,37.429954,137.034839,0768-34-1001,,ko-najimi@po.city.wajima.ishikawa.jp,,,928-0246,2.00002E+12,輪島市,月・火・水・木・金・土・日曜日、祝日,8:30,17:15,夜間は、照明が無く真っ暗になります,主にグラウンドゴルフ場として利用;ドクターヘリ出動時には発着所として活用,有,無,無,無,無,無,無,有,無,無,有,無,無,無,有,無,有,
輪島市門前野球場,石川県輪島市門前町清水7の1番地,石川県,輪島市,37.291083,136.761407,0768-42-1495,,,,,927-2175,2.00002E+12,輪島市,月・火・水・木・金・土・日曜日、祝日,7:00,17:30,利用開始及び終了時刻は、実際には日の出から日没まで;12/29～1/3は利用休止,両翼91m;中堅110m,無,無,無,無,無,無,無,有,無,無,無,無,無,無,有,無,無,https://www.city.wajima.ishikawa.jp/shougai/wajimasports/establish/monzen_baseballfield.html
輪島市門前簡易グラウンド,石川県輪島市門前町清水7の1番地,石川県,輪島市,37.292013,136.760066,0768-42-1495,,,,,927-2175,2.00002E+12,輪島市,月・火・水・木・金・土・日曜日、祝日,7:00,21:30,利用開始及び終了時刻は、実際には日の出から21:30まで;12/29～1/3は利用休止,ソフトボール場2面;夜間照明あり,有,無,無,無,無,無,無,有,無,無,無,無,無,無,有,無,有,https://www.city.wajima.ishikawa.jp/shougai/wajimasports/establish/monzen_kanigrand.html
輪島市門前総合運動公園,石川県輪島市門前町清水4の23番地1;7の1番地;8の9番地,石川県,輪島市,37.291638,136.759883,0768-42-1495,,,,,927-2175,2.00002E+12,輪島市,月・火・水・木・金・土・日曜日、祝日,9:00,21:30,12/29～1/3は利用休止,野球場;簡易グラウンド;体育館;テニスコート;ゲートボール場;武道館;多目的体育館;グラウンドゴルフ場,有,無,無,無,無,無,無,有,無,無,無,無,無,無,有,無,有,
輪島市門前健民体育館,石川県輪島市門前町清水7の1番地,石川県,輪島市,37.290938,136.758896,0768-42-1495,,,,,927-2175,2.00002E+12,輪島市,月・火・水・木・金・土・日曜日、祝日,9:00,21:30,12/29～1/3は休館,バレーボール2面;バスケットボール2面;バドミントン8面;卓球10台;フットサル;トランポリン;ランニングコース;トレーニング場,有,有,無,有,スロープ有,無,無,有,無,無,有,無,無,無,有,無,有,https://www.city.wajima.ishikawa.jp/shougai/wajimasports/establish/monzen_taiikukan.html
輪島市門前テニスコート,石川県輪島市門前町清水7の1番地,石川県,輪島市,37.291472,136.758879,0768-42-1495,,,,,927-2175,2.00002E+12,輪島市,月・火・水・木・金・土・日曜日、祝日,7:00,21:30,利用開始及び終了時刻は、実際には日の出から21:30まで;12/29～1/3は利用休止,全天候型テニスコート4面,有,無,無,無,無,無,無,有,無,無,無,無,無,無,有,無,有,https://www.city.wajima.ishikawa.jp/shougai/wajimasports/establish/monzen_tennis.html
輪島市門前ゲートボール場,石川県輪島市門前町清水7の1番地,石川県,輪島市,37.292087,136.76065,0768-42-1495,,,,,927-2175,2.00002E+12,輪島市,月・火・水・木・金・土・日曜日、祝日,7:00,17:30,利用開始及び終了時刻は、実際には日の出から日没まで;12/29～1/3は利用休止,ゲートボール1面,有,無,無,無,無,無,無,有,無,無,無,無,無,無,有,無,有,
輪島市門前武道館,石川県輪島市門前町清水7の1番地,石川県,輪島市,37.290979,136.757815,0768-42-1495,,,,,927-2175,2.00002E+12,輪島市,月・火・水・木・金・土・日曜日、祝日,9:00,21:30,12/29～1/3は休館,柔道場1面;剣道場1面;空手場,無,無,無,無,無,無,無,有,無,無,無,無,無,無,有,無,無,https://www.city.wajima.ishikawa.jp/shougai/wajimasports/establish/budokan.html
輪島市門前多目的体育館,石川県輪島市門前町清水7の1番地,石川県,輪島市,37.291231,136.757799,0768-42-1495,,,,,927-2175,2.00002E+12,輪島市,月・火・水・木・金・土・日曜日、祝日,9:00,21:30,12/29～1/3は休館,屋内運動場（人工芝）;ゲートボール2面;テニスコート1面,無,無,無,無,無,無,無,有,無,無,無,無,無,無,有,無,無,https://www.city.wajima.ishikawa.jp/shougai/wajimasports/establish/monzen_tamokuteki.html
輪島市門前グラウンドゴルフ場,石川県輪島市門前町道下にの49番地1,石川県,輪島市,37.287499,136.738512,0768-42-1495,,,,,927-2164,2.00002E+12,輪島市,月・火・水・木・金・土・日曜日、祝日,7:00,17:30,利用開始及び終了時刻は、実際には日の出から日没まで;12/29～1/3は利用休止,ゲートボール1面;グラウンドゴルフ（8ホール;4コース）,有,無,無,有,無,無,無,有,無,無,有,無,無,無,有,無,有,https://www.city.wajima.ishikawa.jp/shougai/wajimasports/establish/monzen_grandgolf.html
輪島市マリンタウン観光交流施設,石川県輪島市マリンタウン1番地1,石川県,輪島市,37.396764,136.905377,0768-23-0032,,kankou@city.wajima.lg.jp,,Facebookあり,928-0008,2.00002E+12,輪島市,月・火・水・木・金・土・日曜日、祝日,8:30,17:00,第2・第4水曜日は休業,観光案内所で、交通アクセスや観光スポットの案内のほか、レンタサイクル貸出、マリンタウンボートパーク受付等も行います;観光パンフや割引券などを設置;コインロッカー有り,有,有,無,有,スロープ有,有,無,有,無,有,有,有,無,無,有,無,有,
輪島市マリンタウン交流拠点施設（輪島キリコ会館）,石川県輪島市マリンタウン6番地1,石川県,輪島市,37.396994,136.907566,0768-22-7100,,wajima-kiriko@bird.ocn.ne.jp,wajima-kiriko.com/contact/,,928-0008,2.00002E+12,輪島市,月・火・水・木・金・土・日曜日、祝日,9:00,17:00,,能登の夏祭りで担がれるキリコ奉燈を一堂に展示,有,有（３台）,無,有,エレベータ有,有,無,有,無,有,有,無,無,無,無,無,有,https://wajima-kiriko.com
輪島市マリンタウンボートパーク,石川県輪島市マリンタウン7番地1,石川県,輪島市,37.397375,136.905718,0768-23-1156,,machi@city.wajima.lg.jp,,,928-0008,2.00002E+12,輪島市,月・火・水・木・金・土・日曜日、祝日,9:00,17:00,12/29～1/3、1月第3月曜日～金曜日は休業;その他設備のメンテナンス等により臨時休業有り,"船舶の係留施設（艇長 5m未満 日額2,200円。以降、1m超える毎に300円加算）や陸上保管施設（艇長 5m未満 月額4,000円 年額40,000円。以降、1m超える毎に月額1,000円加算、年額10,000円加算）が利用できます",無,無,無,無,無,無,無,無,無,無,有,無,無,無,有,無,無,
輪島駅ふらっと訪夢,石川県輪島市河井町20部1番地131,石川県,輪島市,37.389105,136.906251,0768-22-1503,,kankou@city.wajima.lg.jp,,Facebookあり;Twitterあり;Instagramあり,928-0001,2.00002E+12,輪島市,月・火・水・木・金・土・日曜日、祝日,8:30,17:00,営業時間は、バス案内所（7:55～17:50）、わじま観光案内センター（8:30～17:00）,のと鉄道の終着駅「輪島駅」の跡地で、踏切や線路の一部が残っており、絶好の撮影スポットとなっています;第2・第4水曜日（8:00～12:00）には地物市が開催されます;電動レンタサイクル有り,有,無,無,有,エレベータ有,有,無,有,無,有,有,有,無,無,有,無,有,
物産館,石川県輪島市河井町20部1番地132,石川県,輪島市,37.389212,136.906192,0768-22-1503,,kankou@city.wajima.lg.jp,,,928-0001,2.00002E+12,輪島市,月・火・水・木・金・土・日曜日、祝日,9:00,20:55,土産物店（10:00～18:00 / 水曜定休）;ゴーゴーカレー輪島店（9:55～20:55）;カフェ（9:00～17:30 / 毎月第1火曜ほか休）,土産物店では、地酒や輪島塗、海産物などを厳選して取り扱っています;ゴーゴーカレー輪島店には、ここでしか食べることが出来ない限定メニューがあります,有,無,無,有,,有,無,店舗による,無,店舗による,有,無,無,無,有,無,有,
永井豪記念館,石川県輪島市河井町1部123番地,石川県,輪島市,37.396749,136.901606,0768-23-0715,,staff@go-wonderland.jp,www.go-wonderland.jp/contact/,Instagramあり,928-0001,2.00002E+12,輪島市,月・火・水・木・金・土・日曜日、祝日,8:30,17:00,最終入館は16:30まで;展示替え休館あり,輪島市で生まれ幼少期を過ごした世界的な漫画家・永井豪先生自身と先生の作品世界を辿れる記念館です,有,無,無,有,スロープ有,有,無,有,無,有,無,無,無,無,無,無,有,https://www.go-wonderland.jp/
輪島市天領黒島角海家,石川県輪島市門前町黒島町ロ94番地2,石川県,輪島市,37.282624,136.735432,0768-43-1135,,bunka@city.wajima.lg.jp,,,927-2165,2.00002E+12,輪島市,火・水・木・金・土・日曜日、祝日,9:00,17:00,月曜日（祝日の場合は翌日）及び12/29～1/3は休館;最終入館は16:30まで,明治前期に建てられたとされる代表的な廻船問屋住宅で、主屋や土蔵群は国指定重要文化財に指定されており、また角海家のある黒島地区は国の伝統的建造物群保存地区にも選定されています,無,無,無,無,無,無,無,無,無,無,無,無,無,無,無,無,無,https://www.city.wajima.ishikawa.jp/docs/2016062700015/
輪島市黒島天領北前船資料館,石川県輪島市門前町黒島町ロの114番地2,石川県,輪島市,37.281907,136.734488,0768-43-1135,,bunka@city.wajima.lg.jp,,,927-2165,2.00002E+12,輪島市,火・水・木・金・土・日曜日、祝日,9:00,16:00,入館希望の方は、角海家にお尋ね下さい;月曜日（祝日の場合は翌日）及び12/29～1/3は休館,北前船模型や天領祭で使う曳山を展示;現在、平時は閉館中のため、入館希望者は角海家まで,無,無,無,無,無,無,無,無,無,無,無,無,無,無,無,無,無,
輪島市櫛比の庄禅の里交流館,石川県輪島市門前町走出6の10番地,石川県,輪島市,37.288981,136.769022,0768-42-3550,,bunka@city.wajima.lg.jp,,,927-2151,2.00002E+12,輪島市,火・水・木・金・土・日曜日、祝日,9:00,17:00,月曜日（祝日の場合は翌日）及び12/29～1/3は休館;最終入館は16:30まで,總持寺祖院の歴史や修行の様子などをパネルや映像で紹介するほか、歴史的資料を展示;市指定有形文化財・旧酒井家の主屋や土蔵を利用した展示やイベントも開催,有,有,無,有,エレベータ有,無,無,無,無,無,無,無,無,無,無,無,無,https://www.city.wajima.ishikawa.jp/docs/2013030600032/
輪島市千枚田レストハウス,石川県輪島市白米町ハ部99番地5,石川県,輪島市,37.424234,136.99779,0768-34-1004,,kankou@city.wajima.lg.jp,,Facebookあり;Instagramあり,928-0256,2.00002E+12,輪島市,月・火・水・木・金・土・日曜日、祝日,9:00,18:00,平時は9:00～18:00営業;あぜのきらめき開催期間中は9:00～19:00営業,日本海に面した名勝・千枚田を眺めながら食事ができるほか、輪島土産の販売もしています;「あぜのきらめき」などイベント時は混雑が予想されます,有,無,無,有,現地にて対応,有,無,有,無,有,有,有,無,無,有,無,有,https://www.wajima-senmaida.jp
輪島市足湯施設「湯楽里」,石川県輪島市河井町4部169番地1,石川県,輪島市,37.39413,136.905532,0768-23-1146,,kankou@city.wajima.lg.jp,,,928-0001,2.00002E+12,輪島市,月・火・水・木・金・土・日曜日、祝日,6:00,22:00,毎週木曜日の14:00～17:00は、清掃のため利用不可,40度前後、毎分60リットルかけ流し;無料で利用できるが、タオルは近隣施設の工房長屋で1枚100円にて販売;輪島塗の座席12席設置;足湯のほか、手湯、ペット湯あり,有,無,無,有,スロープ有,無,無,有,無,有,無,無,無,無,無,無,有,
輪島ドラマ記念館（朝市交流施設）,石川県輪島市河井町1部38番地,石川県,輪島市,37.396555,136.899996,0768-23-1123,,kankou@city.wajima.lg.jp,,,928-0001,2.00002E+12,輪島市,月・火・水・木・金・土・日曜日、祝日,8:00,15:00,1/1～1/3は休館,2015年前期ＮＨＫ連続テレビ小説「まれ」のロケセット展示、土産物販売,有,無,無,有,スロープ有,有,無,有,無,有,無,無,無,無,無,無,有,https://ringisland.jp/dorama.html
禅の里広場観光案内所,石川県輪島市門前町走出6の30番地,石川県,輪島市,37.290017,136.768894,,,shinkou@city.wajima.lg.jp,,,927-2151,2.00002E+12,輪島市,月・水・木・金・土・日曜日、祝日,9:00,16:00,併設している公衆トイレは24時間利用可能,観光案内;休憩所;トイレ;物産販売;おにぎり・コーヒー等,有,有,無,有,無,無,無,有,無,有,有,有,無,無,有,無,有,
袖ヶ浜海水浴場,石川県輪島市鳳至町袖ヶ浜43番地,石川県,輪島市,37.401379,136.893361,,,kankyou@city.wajima.lg.jp,,,928-0073,2.00002E+12,輪島市,月・火・水・木・金・土・日曜日、祝日,9:00,17:00,7/中旬～8/中旬（年によって日にちは異なる）利用可能,トイレ;シャワー;更衣室,無,無,無,無,無,無,無,有,無,無,無,無,無,無,有,無,有,
琴ヶ浜海水浴場,石川県輪島市門前町剱地ルの165番地,石川県,輪島市,37.225606,136.703629,0768-42-8720,,kankyou@city.wajima.lg.jp,,,927-2342,2.00002E+12,輪島市,月・火・水・木・金・土・日曜日、祝日,9:00,17:00,7/中旬～8/中旬（年によって日にちは異なる）利用可能,砂浜の上を歩くと「キュッ、キュッ」と音が鳴ることから『泣き砂の浜』とも呼ばれます,無,無,無,有,無,無,無,有,無,無,無,無,無,無,有,無,有,
輪島市袖ヶ浜キャンプ場,石川県輪島市鳳至町袖ヶ浜54番地,石川県,輪島市,37.401562,136.895227,0768-23-1146,,kankou@city.wajima.lg.jp,,,928-0073,2.00002E+12,輪島市,月・火・水・木・金・土・日曜日、祝日,8:30,17:00,GW、7/中旬～8/中旬（年によって日にちは異なる）利用可能;16:00チェックイン、9:00チェックアウト,管理棟;炊事場;トイレ;シャワー;駐車場,無,無,無,有,無,無,無,有,無,有,有,無,無,無,無,無,無,
かやぶきの郷コミュニティ施設,石川県輪島市三井町小泉漆原14番地2,石川県,輪島市,37.306701,136.900871,0768-26-1181,,info@satoyamamarugoto.com,https://www.satoyamamarugoto.com/contact/index.html,Facebookあり;Instagramあり,929-2378,2.00002E+12,輪島市,月・火・木・金・土・日曜日、祝日,9:30,17:00,水曜日休館;ランチは11:00～15:00,食事処とオイルトリートメントによるくつろぎ処あり;地域全体をホテルに見立てた「里山まるごとホテル」の宿泊受付所としても機能,無,無,無,有,無,無,読上げ支援有,無,無,有,有,無,無,有,有(持込は不可),無,有,https://www.satoyamamarugoto.com/
能登平家の郷松尾家,石川県輪島市町野町伏戸2字27番地,石川県,輪島市,37.444497,137.068444,0768-22-7666,,bunka@city.wajima.lg.jp,,,928-0232,2.00002E+12,輪島市,月・火・水・木・金・土・日曜日、祝日,8:30,17:15,12/1～3/31は休館;宿泊は15:00～翌10:00、休憩は11:00～14:00;電話での予約制で、連絡は文化課まで,代々庄屋を務めた名家・松尾家の約150年前に建てられた古民家を一軒貸切宿として提供;1日1組20名様まで;ユニットバス、シャワー室、洗面所、洗濯機、洋式トイレ、寝具、ストーブ、エアコン(中の間のみ)、調理器具、駐車場あり;Wi-Fi利用可,無,無,無,有,無,無,無,無,無,無,無,無,無,無,無,無,無,https://www.city.wajima.ishikawa.jp/article/2019031800068/
舳倉島野鳥観察施設,石川県輪島市海士町所属舳倉島出邑山1の1番地,石川県,輪島市,37.850448,136.917461,,,kankyou@city.wajima.lg.jp,,,928-0072,2.00002E+12,輪島市,月・火・水・木・金・土・日曜日、祝日,0:00,23:59,終日利用可能,日本海に浮かぶ舳倉島は、渡り鳥の中継地点となります;珍しい鳥も数多く観察できます,無,無,無,無,無,無,無,有,無,無,無,無,無,無,有,無,無,
輪島市自然休養村管理センター,石川県輪島市赤崎町ハ字50番地,石川県,輪島市,37.381974,136.815019,,,,,,928-0053,2.00002E+12,輪島市,休業中,,,,,無,無,無,無,入口のみスロープ有,無,無,無,無,無,無,無,無,無,無,無,無,
輪島市門前森林学習ハウス,石川県輪島市門前町鬼屋チの1番地2,石川県,輪島市,37.271396,136.772483,,,view-sunset@viola.ocn.ne.jp,,,927-2147,2.00002E+12,輪島市,月・火・水・木・金・土・日曜日、祝日,8:30,17:00,12/29～1/3は休館,管理棟、トイレ,無,無,無,無,無,無,無,有,無,無,無,無,無,無,有,無,無,
千代泣き砂ふれあい広場施設,石川県輪島市門前町千代29の83番地,石川県,輪島市,37.269408,136.728952,,,shinkou@city.wajima.lg.jp,,,927-2351,2.00002E+12,輪島市,月・火・水・木・金・土・日曜日、祝日,0:00,23:59,夜間は、照明が無く真っ暗になります,屋根付きの泣き砂体験施設,有,無,無,無,無,無,無,有,無,無,無,無,無,無,有,無,有,
まちなか座禅堂,石川県輪島市門前町走出6の10番地,石川県,輪島市,37.288881,136.76881,,,,,,927-2151,2.00002E+12,輪島市,月・火・水・木・金・土・日曜日、祝日,0:00,23:59,夜間は、照明が無く真っ暗になります,屋根付きの座禅体験施設,無,無,無,無,無,無,無,無,無,無,無,無,無,無,無,無,無,
輪島市農村ふれあい広場,石川県輪島市西脇町60番地1,石川県,輪島市,37.35723,136.909094,0768-22-2235,,ko-kawarada@po.city.wajima.ishikawa.jp,,,928-0026,2.00002E+12,輪島市,月・火・水・木・金・土・日曜日、祝日,9:00,22:00,夜間は、照明が無く真っ暗になります,芝生,無,無,無,無,無,無,無,有,無,無,無,無,無,無,有,無,無,
緑の健康広場（ゲートボール場）,石川県輪島市北谷町45706,石川県,輪島市,37.356633,136.90916,0768-22-2235,,ko-kawarada@po.city.wajima.ishikawa.jp,,,928-0027,2.00002E+12,輪島市,月・火・水・木・金・土・日曜日、祝日,9:00,22:00,夜間は、照明が無く真っ暗になります,ゲートボール場（4面）,有,無,無,無,無,無,無,有,無,無,無,無,無,無,有,無,有,
輪島市浦上健康増進広場（水車小屋、四阿）,石川県輪島市門前町浦上チの1番地1,石川県,輪島市,37.305729,136.798407,0768-42-0558,,ko-urakami@po.city.wajima.ishikawa.jp,,,927-2102,2.00002E+12,輪島市,月・火・水・木・金・土・日曜日、祝日,0:00,23:59,夜間は、照明が無く真っ暗になります,主にグラウンドゴルフ場として利用,無,無,無,無,無,無,無,有,無,無,無,無,無,無,有,無,無,
輪島市門前モータースポーツ公園,石川県輪島市門前町道下118の48番地1,石川県,輪島市,37.299934,136.740818,0768-42-1111,,shinkou@city.wajima.lg.jp,,,927-2164,2.00002E+12,輪島市,月・火・水・木・金・土・日曜日、祝日,9:00,17:00,冬季（12/1～2/28）は閉鎖,"ダートラリーコース2,783m;トイレ;管理棟;車検場;JAF公認コース",有,無,無,無,無,無,無,有,無,無,無,無,無,無,有,無,有,
能登・門前ファミリーイン ビュー・サンセット,石川県輪島市門前町千代29の58番地,石川県,輪島市,37.26893,136.733844,0768-42-2050,,view-sunset@viola.ocn.ne.jp,,,927-2351,2.00002E+12,輪島市,月・火・水・木・金・土・日曜日、祝日,15:00,10:00,レストランは11:30～20:30 (ラストオーダーは20:00まで),総部屋数23室（洋室2;和室11;和洋室5;その他5）;天然ラドン温泉;レストラン,有,有,無,有,無,無,無,有,無,有,無,無,無,無,有,無,有,https://view-sunset.com
門前簡易宿泊施設ベジタブル・ビレッジ,石川県輪島市門前町千代29の58番地,石川県,輪島市,37.268832,136.734226,0768-42-2050,,view-sunset@viola.ocn.ne.jp,,,927-2351,2.00002E+12,輪島市,月・火・水・木・金・土・日曜日、祝日,15:00,10:00,,貸切タイプコテージ5棟（トマト;パンプキン;ピーマン;キャロット;ポテト）;リビング＋和室8畳間;バス・トイレ付;2Fにシングルベッド4台;最大7名まで利用可能,有,有,無,無,無,無,無,有,無,有,無,無,無,無,有,無,有,https://view-sunset.com
輪島市門前交流促進センター 夕陽,石川県輪島市門前町千代29の58番地,石川県,輪島市,37.269391,136.732492,0768-42-2050,,view-sunset@viola.ocn.ne.jp,,,927-2351,2.00002E+12,輪島市,月・火・水・木・金・土・日曜日、祝日,9:00,21:00,,ご利用の際は、ビュー・サンセットにて受け付けしてください,有,有,無,無,無,無,無,有,無,有,無,無,無,無,有,無,有,
門前じんのびの湯,石川県輪島市門前町千代ハの4番地2,石川県,輪島市,37.269195,136.733624,0768-42-2050,,view-sunset@viola.ocn.ne.jp,,,927-2351,2.00002E+12,輪島市,月・火・水・木・金・土・日曜日、祝日,11:00,21:00,基本は11:00～21:00;水曜日のみ17:00～21:00営業,大浴場2;露天風呂2;サウナ2;水風呂2;気泡風呂1;休憩室3,有,有,無,有,無,無,無,有,無,有,無,無,無,無,有,無,有,https://view-sunset.com/jinnobinoyu/
輪島市門前まんだら村管理棟,石川県輪島市門前町大生ろの11番地1,石川県,輪島市,37.27448,136.755077,,,shinkou@city.wajima.lg.jp,,,927-2163,2.00002E+12,輪島市,月・火・水・木・金・土・日曜日、祝日,9:00,17:00,,施設ご利用の際は、輪島市地域振興課までご連絡ください,有,無,無,無,無,無,無,有,無,無,無,無,無,無,有,無,有,
皆月青少年旅行村キャンプ場,石川県輪島市門前町皆月17番地,石川県,輪島市,37.355047,136.7541,0768-42-1111,,shinkou@city.wajima.lg.jp,,,927-2271,2.00002E+12,輪島市,月・火・水・木・金・土・日曜日、祝日,9:00,17:00,12/1～2/末は休園;門前総合支所で予約受付,"敷地面積4,950平方メートル;テント30帳可;200人収容可",有,無,無,無,無,無,無,有,無,無,無,無,無,無,有,無,有,
輪島塗会館,石川県輪島市河井町24部55番地,石川県,輪島市,37.394194,136.900093,0768-22-2155,,info@wajimanuri.or.jp,https://wajimanuri.or.jp/kaikan/inquiry/,,928-0001,2.00002E+12,輪島市,月・火・水・木・金・土・日曜日、祝日,8:30,17:00,年末年始(12/31～1/3)の営業時間は9:00～15:00;2階輪島塗資料館入館受付は9:00～14:30,"1階は輪島塗ショップ、2階は輪島塗に関する歴史民俗資料約4,000点を保有する輪島塗資料展示室",有,有,無,有,スロープ有;エレベータ有,無,無,有,無,無,有,有,無,無,無,無,有,https://wajimanuri.or.jp/kaikan/
輪島工房長屋,石川県輪島市河井町4部66番地1,石川県,輪島市,37.394906,136.905704,0768-23-0011,,nagaya@ringisland.jp,https://wajima-nagaya.jp/contact/,,928-0001,2.00002E+12,輪島市,月・火・木・金・土・日曜日、祝日,9:00,17:00,水曜日休館(祝日を除く);12/31は休館;年末年始は10:00～16:00;冬季休館期間(1月中旬)有り;体験受付は閉館1時間30分前まで,沈金(パネル)、蒔絵(箸)の輪島塗体験;漆器の修理受付;輪島塗販売;輪島塗工程見学など,有,有,無,有,スロープ有,無,無,有,無,有,有,無,無,有,無,無,有,https://wajima-nagaya.jp/
輪島市ふるさと体験実習館,石川県輪島市町野町曽々木サ部45番地,石川県,輪島市,37.454367,137.073218,0768-32-1331,,sosogi@ca1.wannet.jp,http://furusatotaiken.com,,928-0206,2.00002E+12,輪島市,月・水・木・金・土・日曜日、祝日,9:00,17:00,火曜日、12/29～1/3は休館;平時は17:00までだが、夜間施設利用時は22:00まで,昔ながらの自然な食生活を各種体験可能（豆腐づくり;わたふじ草木染め;磯釣り;味噌づくり;きな粉と朴葉飯づくり;餅つき;地引き網など）,入口のみ有,無,無,有,無,無,読上げ支援有,無,無,有,無,無,無,無,無,無,有,http://furusatotaiken.com/
輪島市農民研修センター,石川県輪島市河井町20部1番地1,石川県,輪島市,37.388742,136.905952,0768-22-7666,,bunka@city.wajima.lg.jp,,,928-0001,2.00002E+12,輪島市,火・水・木・金・土・日曜日、祝日,9:00,22:00,月曜日、12/29～1/3は休館;施設管理の関係での臨時休館あり,301会議室（小ホール）、302会議室（洋室）、303会議室（和室）、304実習室（調理実習等に活用）の4室;営利目的及び金銭の授受を伴う行為は禁止,有,有（２台）,無,有,エレベータ有,有,無,有,無,無,有,有,無,無,無,無,無,https://www.city.wajima.ishikawa.jp/docs/2013030700015/
輪島市本郷農林漁家高齢者センター,石川県輪島市門前町二又川4の4番地1,石川県,輪島市,37.284809,136.826971,0768-42-0636,,ko-hongou@po.city.wajima.ishikawa.jp,,,927-2127,2.00002E+12,輪島市,月・火・水・木・金・土・日曜日、祝日,9:00,22:00,12/29～1/3及び館内整理日は休館;施設利用者がいない場合は、平日の17:00以降及び土・日・祝日は施錠,本郷公民館が入っている施設,有,無,無,有,スロープ有,無,無,有,無,有,無,無,無,無,有,無,有,
門前地域産物販売施設（道の駅赤神）,石川県輪島市門前町赤神1の110番地,石川県,輪島市,37.248317,136.709383,0768-45-1001,,shinkou@city.wajima.lg.jp,,,927-2345,2.00002E+12,輪島市,月・水・木・金・土・日曜日、祝日,9:00,17:00,火曜日、12/29～1/3は休館,食事処、物産展販売、公衆便所、EV充電設備（普通）あり;輪島千枚田とともに、目の前の日本海に夕陽が沈む絶好の撮影スポットでもあります,有,無,無,有,無,無,無,有,無,有,有,無,無,無,有,無,有,
輪島市立河井小学校,石川県輪島市河井町18部1番地2,石川県,輪島市,37.391965,136.903521,0768-22-0836,,kaies202@po.city.wajima.ishikawa.jp,,,928-0001,2.00002E+12,輪島市,月・火・水・木・金曜日,8:15,16:45,土・日・祝日は閉庁;夏季休業期間及び冬季休業期間に学校閉庁日を設けています,屋外運動場、屋内運動場の貸出有り,無,無,無,無,校舎入口スロープ有,無,無,判断保留,無,無,有,無,無,無,無,無,無,https://cms1.ishikawa-c.ed.jp/kawaie/
輪島市立鳳至小学校,石川県輪島市鳳至町堂金田1番地,石川県,輪島市,37.395639,136.895345,0768-22-0620,,fges205@po.city.wajima.ishikawa.jp,,,928-0077,2.00002E+12,輪島市,月・火・水・木・金曜日,8:15,16:45,土・日・祝日は閉庁;夏季休業期間及び冬季休業期間に学校閉庁日を設けています,屋外運動場、屋内運動場の貸出有り,無,無,無,無,,無,無,判断保留,無,無,無,無,無,無,無,無,無,https://cms1.ishikawa-c.ed.jp/fugese/
輪島市立鳳至小学校舳倉島分校,石川県輪島市海士町所属舳倉島高見1番地,石川県,輪島市,37.850866,136.919174,0768-22-8736,,,,,928-0072,2.00002E+12,輪島市,休校中,,,通学する児童がいる場合に開校,,無,無,無,無,,無,無,判断保留,無,無,無,無,無,無,無,無,無,
輪島市立鵠巣小学校,石川県輪島市大野町菰沢2番地3,石川県,輪島市,37.396994,136.934409,0768-22-0404,,koes201@po.city.wajima.ishikawa.jp,,,928-0005,2.00002E+12,輪島市,月・火・水・木・金曜日,8:10,16:40,土・日・祝日は閉庁;夏季休業期間及び冬季休業期間に学校閉庁日を設けています,屋外運動場、屋内運動場の貸出有り,無,無,無,有,,無,無,判断保留,無,無,無,無,無,無,無,無,無,https://cms1.ishikawa-c.ed.jp/kounoe/
輪島市立大屋小学校,石川県輪島市小伊勢町日隈7番地3,石川県,輪島市,37.382929,136.888726,0768-22-0099,,ooes201@po.city.wajima.ishikawa.jp,,,928-0032,2.00002E+12,輪島市,月・火・水・木・金曜日,8:15,16:45,土・日・祝日は閉庁;夏季休業期間及び冬季休業期間に学校閉庁日を設けています,屋外運動場、屋内運動場の貸出有り,無,無,無,無,校舎入口スロープ有,無,無,判断保留,無,無,無,無,無,無,無,無,無,https://cms1.ishikawa-c.ed.jp/ooyaxe/
輪島市立三井小学校,石川県輪島市三井町興徳寺10字29番地,石川県,輪島市,37.315158,136.898124,0768-26-1110,,mies201@po.city.wajima.ishikawa.jp,,,929-2363,2.00002E+12,輪島市,月・火・水・木・金曜日,8:10,16:40,土・日・祝日は閉庁;夏季休業期間及び冬季休業期間に学校閉庁日を設けています,屋外運動場、屋内運動場の貸出有り,無,無,無,無,,無,無,判断保留,無,無,無,無,無,無,無,無,無,https://cms1.ishikawa-c.ed.jp/miixxe/
輪島市立河原田小学校,石川県輪島市横地町6字123番地,石川県,輪島市,37.372519,136.907201,0768-22-0249,,kdes201@po.city.wajima.ishikawa.jp,,,928-0012,2.00002E+12,輪島市,月・火・水・木・金曜日,8:15,16:45,土・日・祝日は閉庁;夏季休業期間及び冬季休業期間に学校閉庁日を設けています,屋外運動場、屋内運動場の貸出有り,無,無,無,無,,無,無,判断保留,無,無,無,無,無,無,無,無,無,https://cms1.ishikawa-c.ed.jp/kaware/
輪島市立町野小学校,石川県輪島市町野町粟蔵川原田42番地,石川県,輪島市,37.422654,137.08913,0768-32-0008,,maes201@po.city.wajima.ishikawa.jp,,,928-0215,2.00002E+12,輪島市,月・火・水・木・金曜日,8:10,16:40,土・日・祝日は閉庁;夏季休業期間及び冬季休業期間に学校閉庁日を設けています,屋外運動場、屋内運動場の貸出有り,無,無,無,無,,無,無,判断保留,無,無,無,無,無,無,無,無,無,https://cms1.ishikawa-c.ed.jp/machie/
輪島市立門前西小学校,石川県輪島市門前町道下1の123番地,石川県,輪島市,37.284971,136.741097,0768-43-1804,,westes12@po.city.wajima.ishikawa.jp,,,927-2164,2.00002E+12,輪島市,月・火・水・木・金曜日,8:10,16:40,土・日・祝日は閉庁;夏季休業期間及び冬季休業期間に学校閉庁日を設けています,屋外運動場、屋内運動場の貸出有り,無,無,無,無,,無,無,判断保留,無,無,無,無,無,無,無,無,無,https://cms1.ishikawa-c.ed.jp/mweste/
輪島市立門前東小学校,石川県輪島市門前町清水1の68番地,石川県,輪島市,37.287626,136.766975,0768-42-0931,,eastes10@po.city.wajima.ishikawa.jp,,,927-2175,2.00002E+12,輪島市,月・火・水・木・金曜日,8:15,16:45,土・日・祝日は閉庁;夏季休業期間及び冬季休業期間に学校閉庁日を設けています,屋外運動場、屋内運動場の貸出有り,無,無,無,無,,無,無,判断保留,無,無,無,無,無,無,無,無,無,https://cms1.ishikawa-c.ed.jp/mneast/
輪島市立輪島中学校,石川県輪島市河井町11部39番地1,石川県,輪島市,37.39084,136.911889,0768-22-1244,,wajh01@po.city.wajima.ishikawa.jp,,,928-0001,2.00002E+12,輪島市,月・火・水・木・金曜日,8:10,16:40,土・日・祝日は閉庁;夏季休業期間及び冬季休業期間に学校閉庁日を設けています,屋外運動場、屋内運動場、武道場、全天候広場、テニスコートの貸出有り,有,無,無,有,校舎エレベータ有,無,無,判断保留,無,無,有,有,無,無,無,無,無,https://cms1.ishikawa-c.ed.jp/wajimj/
輪島市立輪島中学校舳倉島分校,石川県輪島市海士町所属舳倉島高見1番地,石川県,輪島市,37.850866,136.919174,0768-22-8736,,,,,928-0072,2.00002E+12,輪島市,休校中,,,通学する生徒がいる場合に開校,,無,無,無,無,,無,無,判断保留,無,無,無,無,無,無,無,無,無,
輪島市立東陽中学校,石川県輪島市町野町粟蔵川原田33番地,石川県,輪島市,37.422799,137.08781,0768-32-0834,,tojh201@po.city.wajima.ishikawa.jp,,,928-0215,2.00002E+12,輪島市,月・火・水・木・金曜日,8:05,16:35,土・日・祝日は閉庁;夏季休業期間及び冬季休業期間に学校閉庁日を設けています,屋外運動場、屋内運動場の貸出有り,有,無,無,有,校舎エレベータ有,無,無,判断保留,無,無,無,有,無,無,無,無,無,https://cms1.ishikawa-c.ed.jp/touyoj/
輪島市地域交流施設,石川県輪島市町野町粟蔵川原田33番地,石川県,輪島市,37.422799,137.08781,0768-32-0834,,tojh201@po.city.wajima.ishikawa.jp,,,928-0215,2.00002E+12,輪島市,月・火・水・木・金曜日,8:05,16:35,土・日・祝日は閉庁;夏季休業期間及び冬季休業期間に学校閉庁日を設けています,地域交流センター（多目的ホール、ミーティングルーム、ランチルーム）、地域交流広場（テニスコート）の貸出有り,有,無,無,有,,無,無,判断保留,無,無,有,有,無,有,無,無,無,
輪島市立門前中学校,石川県輪島市門前町清水10の21番地,石川県,輪島市,37.291792,136.764207,0768-42-0260,,mnjh118@po.city.wajima.ishikawa.jp,,,927-2175,2.00002E+12,輪島市,月・火・水・木・金曜日,8:10,16:40,土・日・祝日は閉庁;夏季休業期間及び冬季休業期間に学校閉庁日を設けています,屋外運動場、屋内運動場の貸出有り,有,無,無,有,校舎エレベータ有,無,無,判断保留,無,無,有,無,無,有,無,無,無,https://cms1.ishikawa-c.ed.jp/monzej/
輪島市教育研究所,石川県輪島市堀町1字14番地,石川県,輪島市,37.388795,136.894842,0768-23-1172,,kenkyuu@po.city.wajima.ishikawa.jp,,,928-0062,2.00002E+12,輪島市,月・火・水・木・金曜日,8:30,17:15,土・日・祝日及び12/29～1/3は閉庁,,無,無,無,無,,無,無,判断保留,無,無,無,無,無,無,無,無,無,
輪島市児童センター,石川県輪島市河井町2部287番地1,石川県,輪島市,37.394117,136.901155,0768-22-8031,,jidou@city.wajima.lg.jp,,,928-0001,2.00002E+12,輪島市,火・水・木・金・土・日曜日,8:30,17:00,平日は8:30～17:00、土・日曜日は8:30～16:00開館;月曜日、祝日及び12/29～1/3は休館,軽運動室;多目的研修室;図書室;創作活動室;事務室,有,有,有,有,有,有,無,有,無,有,有,有,有,有,無,無,有,https://www.city.wajima.ishikawa.jp/docs/2013041100033/
輪島市子育て支援センター,石川県輪島市河井町2部287番地1,石川県,輪島市,37.394117,136.901155,0768-22-8031,,jidou@city.wajima.lg.jp,,,928-0001,2.00002E+12,輪島市,火・水・木・金・土・日曜日,8:30,17:00,平日は8:30～17:00、土・日曜日は8:30～16:00開館;月曜日、祝日及び12/29～1/3は休館,軽運動室;多目的研修室;図書室;創作活動室;事務室;支援ルーム;家族トイレ;調乳室;授乳室,有,有,有,有,有,有,無,有,無,有,有,有,有,有,無,無,有,https://www.city.wajima.ishikawa.jp/docs/2014081500043/
大屋児童クラブ,石川県輪島市小伊勢町日隈4番,石川県,輪島市,37.38385,136.889,,,washakyo@aqua.ocn.ne.jp,,,928-0032,2.00002E+12,輪島市,月・火・水・木・金曜日,12:30,18:30,利用開始時間は実際には放課後からであり、日によって異なる;夏休みなどの長期休暇期間中は8:00～18:30;土・日・祝日は休み,"児童クラブ室1,2",有,無,無,無,有,無,無,有,無,有,有,無,無,無,無,無,有,https://www.city.wajima.ishikawa.jp/docs/2013041000012/
輪島市もんぜん児童館,石川県輪島市門前町鬼屋4の20番地,石川県,輪島市,37.288648,136.76565,0768-42-3166,,washakyo@aqua.ocn.ne.jp,,,927-2147,2.00002E+12,輪島市,火・水・木・金・土・日曜日,9:00,18:00,平日は9:00～18:00、土・日曜日は9:00～17:00開館;月曜日、祝日及び12/29～1/3は休館,遊戯室;創作活動室;児童クラブ室;調理室;地域交流スペース;図書室;事務室;子育て支援室,有,無,無,有,有,有,無,有,無,有,有,無,有,有,無,無,有,https://www.city.wajima.ishikawa.jp/docs/2013041100033/
輪島市立鳳来保育所,石川県輪島市鳳至町石浦町83番地1,石川県,輪島市,37.39825,136.896985,0768-22-2231,,ho-hourai@city.wajima.lg.jp,,,928-0076,2.00002E+12,輪島市,月・火・水・木・金・土曜日,7:30,18:30,土曜日は13:00まで;日曜日と祝日、年末年始休所,ほふく室;授乳室;調乳室;保育室;遊戯室;調理室;事務室;医務室,有,無,無,有,有,無,無,有,無,有,無,無,無,無,無,無,無,
輪島市立三井保育所,石川県輪島市三井町長沢2字11番地,石川県,輪島市,37.315653,136.90263,0768-26-1201,,ho-mii@city.wajima.lg.jp,,,929-2379,2.00002E+12,輪島市,月・火・水・木・金・土曜日,7:30,18:30,土曜日は13:00まで;日曜日と祝日、年末年始休所,ほふく室;授乳室;調乳室;保育室;遊戯室;調理室;事務室;医務室,有,無,無,有,有,有,無,有,無,有,無,無,無,無,無,無,無,
輪島市立南志見保育所,石川県輪島市里町32字47番地,石川県,輪島市,37.43099,137.034239,0768-34-1212,,ho-najimi@city.wajima.lg.jp,,,928-0246,2.00002E+12,輪島市,月・火・水・木・金・土曜日,7:30,18:30,土曜日は13:00まで;日曜日と祝日、年末年始休所,ほふく室;授乳室;調乳室;保育室;遊戯室;調理室;事務室;医務室,有,無,無,有,有,有,無,有,無,有,無,無,無,無,無,無,無,
輪島市立河原田保育所,石川県輪島市東中尾町16番地,石川県,輪島市,37.368258,136.907342,0768-22-1206,,ho-kawarada@city.wajima.lg.jp,,,928-0025,2.00002E+12,輪島市,月・火・水・木・金・土曜日,7:30,18:30,土曜日は13:00まで;日曜日と祝日、年末年始休所,ほふく室;授乳室;調乳室;保育室;遊戯室;調理室;事務室;医務室,有,無,無,有,無,無,無,有,無,有,無,無,無,無,無,無,無,
輪島市立くしひ保育所,石川県輪島市門前町日野尾ニの75番地,石川県,輪島市,37.288305,136.773798,0768-42-3085,,ho-kushihi@city.wajima.lg.jp,,,927-2155,2.00002E+12,輪島市,月・火・水・木・金・土曜日,7:30,18:30,土曜日は13:00まで;日曜日と祝日、年末年始休所,ほふく室;授乳室;調乳室;保育室;遊戯室;調理室;事務室;医務室,有,無,無,無,有,無,無,有,無,有,無,無,無,無,無,無,無,
輪島市立松風台保育所,石川県輪島市門前町道下4の2番地1,石川県,輪島市,37.287601,136.744605,0768-43-1130,,ho-syouhu@city.wajima.lg.jp,,,927-2164,2.00002E+12,輪島市,月・火・水・木・金・土曜日,7:30,18:30,土曜日は13:00まで;日曜日と祝日、年末年始休所,ほふく室;授乳室;調乳室;保育室;遊戯室;調理室;事務室;医務室,有,無,無,無,無,無,無,有,無,有,無,無,無,無,無,無,無,
輪島市立老人福祉センター,石川県輪島市河井町20部1番地1,石川県,輪島市,37.388742,136.905952,0768-22-2226,,ko-wajima@po.city.wajima.ishikawa.jp,,,928-0001,2.00002E+12,輪島市,月・火・水・木・金・土・日曜日、祝日,9:00,21:30,12/29～1/3は休館;施設利用者がいない場合は、平日の17:00以降及び土・日・祝日は施錠,5部屋（① 健康相談室/茶室、② 和室会議室、③ 和室会議室、④ 機能回復訓練室、⑤ 図書室）貸出可能;使用許可申請は輪島公民館まで,有,有,無,有(故障中),スロープ有;エレベータ有,有,無,有,無,有,有,無,無,無,無,無,有,
介護予防拠点施設ふれあいプラザ二勢,石川県輪島市二勢町44番地,石川県,輪島市,37.386691,136.895935,0768-23-0080,,,,,928-0031,2.00002E+12,輪島市,月・火・水・木・金曜日,8:30,17:00,土・日曜日、祝日及び12/29～1/3は休館,デイルーム、だんらん室、地域交流室、ボランティアルーム、集会室（和室）,有,有,無,有,スロープ有,有,無,有,無,有,無,無,無,無,有,無,有,
介護予防拠点施設ふれあいプラザ河原田,石川県輪島市西脇町60番地1,石川県,輪島市,37.357179,136.908381,0768-22-2235,,ko-kawarada@po.city.wajima.ishikawa.jp,,,928-0026,2.00002E+12,輪島市,月・火・水・木・金・土・日曜日、祝日,9:00,22:00,12/29～1/3は休館;施設利用者がいない場合は、平日の17:00以降及び土・日・祝日は施錠,集会室・研修室、図書室、和室集会室、調理実習室,有,無,無,有,スロープ有,無,無,有,無,有,有,無,無,無,有,無,有,
介護予防拠点施設ふれあいプラザ鵠巣,石川県輪島市大野町菰沢39番地3,石川県,輪島市,37.397773,136.933671,0768-22-4288,,,,,928-0005,2.00002E+12,輪島市,月・火・水・木・金・土・日曜日、祝日,9:00,21:00,鵠巣児童クラブ開設時以外と施設利用者がいない場合は施錠;利用予約は輪島市社協へ（TEL:0768-22-2219）,談話室（和室）、調理実習室,有,無,無,有,スロープ有,有,無,有,無,有,有,無,無,無,有,無,無,
介護予防拠点施設ふれあいプラザ曽々木,石川県輪島市町野町曽々木サ部45番地,石川県,輪島市,37.454367,137.073218,0768-32-1331,,,,,928-0206,2.00002E+12,輪島市,月・水・木・金・土・日曜日、祝日,9:00,17:00,火曜日、12/29～1/3は休館;平時は17:00までだが、夜間施設利用時は22:00まで,機能回復訓練室（和室、2室）,無,無,無,有,無,無,無,無,無,無,無,無,無,無,無,無,無,
高齢者生きがいづくり輪島深見センター,石川県輪島市深見町65字33番地1,石川県,輪島市,37.41063,136.969785,0768-22-2237,,,,,928-0007,2.00002E+12,輪島市,月・火・水・木・金・土・日曜日、祝日,9:00,22:00,12/29～1/3は休館;施設利用者がいない場合は、平日の17:00以降及び土・日・祝日は施錠,デイルーム（和室）、工房室、調理実習室、体育館、創作室（1）、創作室（2）、健康ジム,無,無,無,無,無,無,無,有,無,無,無,無,無,無,有,無,有,
輪島市ふれあい健康センター,石川県輪島市河井町2部287番地1,石川県,輪島市,37.394117,136.901155,0768-23-1136,,kenkou@city.wajima.lg.jp,,,928-0001,2.00002E+12,輪島市,月・火・水・木・金・土・日曜日、祝日,8:30,21:30,18:00以降の時間帯、祝日に貸館が無い場合は閉館;12/29～1/3は閉館,研修室、栄養学習室、和室の無料貸し出し有り,有,有,有,有,有,有,無,有,無,有,有,有,有,有,無,無,有,
輪島市門前保健センター,石川県輪島市門前町深田21の17番地1,石川県,輪島市,37.288288,136.779176,0768-42-1313,,seikatsu@city.wajima.lg.jp,,,927-2153,2.00002E+12,輪島市,月・火・水・木・金曜日,8:30,17:15,土・日・祝日及び12/29～1/3は休館,本館：2階建て（事務室、栄養指導室、会議室、門前診療所）、別館：2階建て（多目的ホール、研修ホール、リラックスルーム）,有,有,無,有,スロープ有,有,読上げ支援有,有,無,有,有,無,無,有,有,無,有,
輪島市役所,石川県輪島市二ツ屋町2字29番地,石川県,輪島市,37.390277,136.899122,0768-22-2211,340,kanri@city.wajima.lg.jp,,,928-8525,2.00002E+12,輪島市,月・火・水・木・金曜日,8:30,17:15,市民課と税務課の窓口業務は18:00まで;12/29～1/3は閉庁;17:15～翌8:30と、土・日・祝日の全日は時間外にて受付,庁内には、総務部(総務課;秘書政策課;防災対策課;監理課)、企画振興部(企画課;財政課)、市民生活部(市民課;環境対策課;税務課)、健康福祉部(福祉課)、産業部(農林水産課;漆器商工課;観光課)、建設部(土木課;都市整備課)、会計課、議会事務局、選挙管理委員会、監査委員事務局、農業委員会事務局などがあります,有,有,無,有,エレベータ有,無,有,有,無,有,有,有,有,有,有,有,有,https://www.city.wajima.ishikawa.jp/
輪島市役所門前総合支所,石川県輪島市門前町走出6の69番地,石川県,輪島市,37.287396,136.768016,0768-42-1111,,shinkou@city.wajima.lg.jp,,,927-2151,2.00002E+12,輪島市,月・火・水・木・金曜日,8:30,17:15,12/29～1/3は閉庁;17:15～翌8:30と、土・日・祝日の全日は時間外にて受付,庁内には、地域振興課(1階)、地域生活課(1階)、地域整備課(1階)、門前交流センター(2階)、放送課(3階)、門前商工会(3階)などがあります,有,有,無,有,スロープ有;エレベータ有,無,無,有,無,有,有,有,無,無,有,無,有,https://www.city.wajima.ishikawa.jp/
輪島市役所町野支所,石川県輪島市町野町粟蔵川原田22番地1,石川県,輪島市,37.423364,137.08813,0768-32-0001,,machino@city.wajima.lg.jp,,,928-0215,2.00002E+12,輪島市,月・火・水・木・金曜日,8:30,17:15,土・日・祝日及び12/29～1/3は閉庁,町野地区（町野町全域）の支所;戸籍謄(抄)本、除籍謄(抄)本、住民票の写し等の申請が可能,有,無,無,無,スロープ有,無,読上げ支援有,有,無,有,無,無,無,無,有,無,無,
輪島市役所三井出張所,石川県輪島市三井町長沢2字12番地1,石川県,輪島市,37.315386,136.902599,0768-26-1211,,mii@city.wajima.lg.jp,,,929-2379,2.00002E+12,輪島市,月・火・水・木・金曜日,8:30,17:15,土・日・祝日及び12/29～1/3は閉庁,三井地区（三井町全域;大和町）の出張所;戸籍謄(抄)本、除籍謄(抄)本、住民票の写し等の申請が可能,有,無,無,無,スロープ有,無,無,有,無,無,無,無,無,無,有,無,有,https://www.city.wajima.ishikawa.jp/
輪島市役所南志見出張所,石川県輪島市里町32字36番地,石川県,輪島市,37.430261,137.034125,0768-34-1001,,najimi@city.wajima.lg.jp,,,928-0246,2.00002E+12,輪島市,月・火・水・木・金曜日,8:30,17:15,土・日・祝日及び12/29～1/3は閉庁,南志見地区（白米町;野田町;名舟町;尊利地町;小田屋町;里町;渋田町;西院内町;東印内町;忍町;東山町;小西山町;大西山町）の出張所;戸籍謄(抄)本、除籍謄(抄)本、住民票の写し等の申請が可能,有,有,無,有,スロープ有,無,読上げ支援有,有,無,有,有,無,無,無,有,無,有,https://www.city.wajima.ishikawa.jp/
輪島市役所西保出張所,石川県輪島市大沢町ホサソ201番地3,石川県,輪島市,37.375175,136.803076,0768-36-2001,,nisiho@city.wajima.lg.jp,,,928-0054,2.00002E+12,輪島市,月・火・水・木・金曜日,8:30,17:15,土・日・祝日及び12/29～1/3は閉庁,西保地区（上山町;西二又町;上大沢町;大沢町;赤崎町;下山町;小池町）の出張所;戸籍謄(抄)本、除籍謄(抄)本、住民票の写し等の申請が可能,有,無,無,有,スロープ有,有,無,有,無,無,無,無,無,有,有,無,有,https://www.city.wajima.ishikawa.jp/
奥能登広域圏事務組合消防本部,石川県輪島市杉平町大百苅2番地,石川県,輪島市,37.381897,136.911964,0768-23-0119,213,syomuka04@okunotosyobo.jp,,Instagram:奥能登広域圏事務組合消防本部【公式】,928-0011,2.00002E+12,輪島市,月・火・水・木・金曜日,8:30,17:15,土・日・祝日及び12/29～1/3は閉庁,２階に奥能登広域圏事務組合消防本部があります,有,無,無,無,エレベータ有,有,有,無,有,無,有,無,無,無,有,無,有,https://www.okunoto119.jp/
奥能登広域圏事務組合輪島消防署,石川県輪島市杉平町大百苅2番地,石川県,輪島市,37.381897,136.911964,0768-22-0327,150,wajimafire7@city.wajima.lg.jp,,,928-0011,2.00002E+12,輪島市,月・火・水・木・金・土・日曜日、祝日,0:00,23:59,24時間の勤務体制,１階に奥能登広域圏事務組合輪島消防署があります,有,無,無,有,エレベータ有,有,有,無,有,無,有,有,無,有,有,無,有,https://www.okunoto119.jp/
奥能登広域圏事務組合輪島消防署門前分署,石川県輪島市門前町走出11の28番地,石川県,輪島市,37.289528,136.759818,0768-42-0649,516,mn-shoubou@city.wajima.lg.jp,,,927-2151,2.00002E+12,輪島市,月・火・水・木・金・土・日曜日、祝日,0:00,23:59,24時間の勤務体制,出動等で職員が不在な時があります,無,無,無,無,無,無,無,無,無,無,無,無,無,無,有,無,無,https://www.okunoto119.jp/
奥能登広域圏事務組合輪島消防署町野分署,石川県輪島市町野町広江1部111番地1,石川県,輪島市,37.425427,137.085771,0768-32-0119,517,fire2@city.wajima.lg.jp,,,928-0201,2.00002E+12,輪島市,月・火・水・木・金・土・日曜日、祝日,0:00,23:59,24時間の勤務体制,出動等で職員が不在な時があります,無,無,無,無,無,無,無,無,無,無,無,無,無,無,無,無,無,https://www.okunoto119.jp/
輪島分団(河井)センター,石川県輪島市河井町20部1番地8,石川県,輪島市,37.389464,136.906039,0768-22-4257,,,,,928-0001,2.00002E+12,輪島市,通常は施錠、必要時のみ開錠。,,,,消防団員が、出動、待機、訓練時等に使用する施設,無,無,無,無,無,無,無,無,無,無,無,無,無,無,無,無,無,
輪島分団(鳳至)器具置場,石川県輪島市鳳至町上町110,石川県,輪島市,37.397087,136.897982,0768-23-0470,,,,,928-0077,2.00002E+12,輪島市,通常は施錠、必要時のみ開錠。,,,,消防団員が、出動、待機、訓練時等に使用する施設,無,無,無,無,無,無,無,無,無,無,無,無,無,無,無,無,無,
輪島分団(舳倉島)器具置場,石川県輪島市海士町所属舳倉島本邑2番地,石川県,輪島市,37.84998,136.919495,,,,,,928-0072,2.00002E+12,輪島市,通常は施錠、必要時のみ開錠。,,,,消防団員が、出動、待機、訓練時等に使用する施設,無,無,無,無,無,無,無,無,無,無,無,無,無,無,無,無,無,
大屋分団センター,石川県輪島市小伊勢町丸垣内22番地1,石川県,輪島市,37.381151,136.88626,0768-23-0043,,,,,928-0032,2.00002E+12,輪島市,通常は施錠、必要時のみ開錠。,,,,消防団員が、出動、待機、訓練時等に使用する施設,無,無,無,無,無,無,無,無,無,無,無,無,無,無,無,無,無,
三井分団センター,石川県輪島市三井町長沢1の45の6,石川県,輪島市,37.314583,136.901442,0768-26-1026,,,,,929-2379,2.00002E+12,輪島市,通常は施錠、必要時のみ開錠。,,,,消防団員が、出動、待機、訓練時等に使用する施設,無,無,無,無,無,無,無,無,無,無,無,無,無,無,無,無,無,
南志見分団センター,石川県輪島市里町32字34の1,石川県,輪島市,37.430584,137.034481,0768-34-1146,,,,,928-0246,2.00002E+12,輪島市,通常は施錠、必要時のみ開錠。,,,,消防団員が、出動、待機、訓練時等に使用する施設,無,無,無,無,無,無,無,無,無,無,無,無,無,無,無,無,無,
鵠巣分団センター,石川県輪島市惣領町8字32の4,石川県,輪島市,37.403092,136.952687,0768-23-0782,,,,,928-0006,2.00002E+12,輪島市,通常は施錠、必要時のみ開錠。,,,,消防団員が、出動、待機、訓練時等に使用する施設,無,無,無,無,無,無,無,無,無,無,無,無,無,無,無,無,無,
河原田分団センター,石川県輪島市市ノ瀬町2部21番15,石川県,輪島市,37.353122,136.909453,0768-23-0027,,,,,928-0015,2.00002E+12,輪島市,通常は施錠、必要時のみ開錠。,,,,消防団員が、出動、待機、訓練時等に使用する施設,無,無,無,無,無,無,無,無,無,無,無,無,無,無,無,無,無,
西保分団センター,石川県輪島市大沢町宝来町75,石川県,輪島市,37.375492,136.801171,0768-36-2014,,,,,928-0054,2.00002E+12,輪島市,通常は施錠、必要時のみ開錠。,,,,消防団員が、出動、待機、訓練時等に使用する施設,無,無,無,無,無,無,無,無,無,無,無,無,無,無,無,無,無,
町野分団センター,石川県輪島市町野町広江1部111番地1,石川県,輪島市,37.425202,137.085763,0768-32-0079,,,,,928-0201,2.00002E+12,輪島市,通常は施錠、必要時のみ開錠。,,,,消防団員が、出動、待機、訓練時等に使用する施設,無,無,無,無,無,無,無,無,無,無,無,無,無,無,無,無,無,
門前分団センター,石川県輪島市門前町走出3の109番地1,石川県,輪島市,37.290556,136.771657,0768-42-9912,,,,,927-2151,2.00002E+12,輪島市,通常は施錠、必要時のみ開錠。,,,,消防団員が、出動、待機、訓練時等に使用する施設,無,無,無,無,無,無,無,無,無,無,無,無,無,無,無,無,無,
剱地分団センター,石川県輪島市門前町剱地ヨの135番地,石川県,輪島市,37.22966,136.706143,0768-45-1027,,,,,927-2342,2.00002E+12,輪島市,通常は施錠、必要時のみ開錠。,,,,消防団員が、出動、待機、訓練時等に使用する施設,無,無,無,無,無,無,無,無,無,無,無,無,無,無,無,無,無,
阿岸分団センター,石川県輪島市門前町是清イの2番地,石川県,輪島市,37.255249,136.731715,0768-43-1029,,,,,927-2353,2.00002E+12,輪島市,通常は施錠、必要時のみ開錠。,,,,消防団員が、出動、待機、訓練時等に使用する施設,無,無,無,無,無,無,無,無,無,無,無,無,無,無,無,無,無,
黒島分団センター,石川県輪島市門前町黒島町ロの95の甲番地,石川県,輪島市,37.282814,136.734671,0768-43-1034,,,,,927-2165,2.00002E+12,輪島市,通常は施錠、必要時のみ開錠。,,,,消防団員が、出動、待機、訓練時等に使用する施設,無,無,無,無,無,無,無,無,無,無,無,無,無,無,無,無,無,
諸岡分団センター,石川県輪島市門前町道下7の15番地,石川県,輪島市,37.289657,136.745019,0768-43-1036,,,,,927-2164,2.00002E+12,輪島市,通常は施錠、必要時のみ開錠。,,,,消防団員が、出動、待機、訓練時等に使用する施設,無,無,無,無,無,無,無,無,無,無,無,無,無,無,無,無,無,
本郷分団センター,石川県輪島市門前町平1の58の4番地,石川県,輪島市,37.283334,136.829268,0768-42-0061,,,,,927-2131,2.00002E+12,輪島市,通常は施錠、必要時のみ開錠。,,,,消防団員が、出動、待機、訓練時等に使用する施設,無,無,無,無,無,無,無,無,無,無,無,無,無,無,無,無,無,
浦上分団センター,石川県輪島市門前町浦上チ字11番地,石川県,輪島市,37.304741,136.796798,0768-42-3017,,,,,927-2102,2.00002E+12,輪島市,通常は施錠、必要時のみ開錠。,,,,消防団員が、出動、待機、訓練時等に使用する施設,無,無,無,無,無,無,無,無,無,無,無,無,無,無,無,無,無,
七浦分団センター,石川県輪島市門前町皆月ソの185番地1,石川県,輪島市,37.352611,136.76146,0768-46-2047,,,,,927-2271,2.00002E+12,輪島市,通常は施錠、必要時のみ開錠。,,,,消防団員が、出動、待機、訓練時等に使用する施設,無,無,無,無,無,無,無,無,無,無,無,無,無,無,無,無,無,
門前防災センター,石川県輪島市門前町走出11の28番地,石川県,輪島市,37.289528,136.759818,0768-42-0649,516,mn-shoubou@city.wajima.lg.jp,,,927-2151,2.00002E+12,輪島市,月・火・水・木・金・土・日曜日、祝日,0:00,23:59,24時間の勤務体制,出動等で職員が不在な時があります,無,無,無,無,無,無,無,無,無,無,無,無,無,無,有,無,無,https://www.okunoto119.jp/
夕陽ケ丘防災拠点施設,石川県輪島市堀町15部2番地2,石川県,輪島市,37.396548,136.891346,,,bousai@city.wajima.lg.jp,,,928-0062,2.00002E+12,輪島市,通常は施錠、必要時のみ開錠。,,,緊急時等に避難施設として開放,夕陽ヶ丘地区を中心に、緊急時等に避難施設として使用する,無,無,無,無,スロープ有,無,無,有,無,無,無,無,無,無,有,無,無,
輪島市水防活動拠点施設,石川県輪島市杉平町西之草2-7,石川県,輪島市,37.38459,136.906934,,,doboku@city.wajima.lg.jp,,,928-0011,2.00002E+12,輪島市,通常は施錠、必要時のみ開錠。,,,,水防資器材,無,無,無,無,無,無,無,有,無,無,無,無,無,無,無,無,無,
青葉ケ丘住宅　A～L棟,石川県輪島市河井町7部10番地2,石川県,輪島市,37.392037,136.913813,0768-23-1156,,,,,928-0001,2.00002E+12,輪島市,,,,,市営住宅,無,無,無,無,無,無,無,無,無,無,無,無,無,無,無,無,無,
青葉ケ丘住宅　M棟,石川県輪島市河井町10部29番地5,石川県,輪島市,37.390671,136.914465,0768-23-1156,,,,,928-0001,2.00002E+12,輪島市,,,,,市営住宅,無,無,無,無,無,無,無,無,無,無,無,無,無,無,無,無,無,
夕陽ケ丘住宅,石川県輪島市堀町15部2番地2 他,石川県,輪島市,37.396785,136.891225,0768-23-1156,,,,,928-0062,2.00002E+12,輪島市,,,,,市営住宅,無,無,無,無,無,無,無,無,無,無,無,無,無,無,無,無,無,
二勢住宅　東棟,石川県輪島市二勢町43番地,石川県,輪島市,37.386147,136.895922,0768-23-1156,,,,,928-0031,2.00002E+12,輪島市,,,,,市営住宅,無,有,無,無,エレベータ有,無,無,無,無,無,有,無,無,無,無,無,無,
二勢住宅　西棟,石川県輪島市二勢町44番地,石川県,輪島市,37.386282,136.895595,0768-23-1156,,,,,928-0031,2.00002E+12,輪島市,,,,,市営住宅,有,有,無,有,エレベータ有,有,無,無,無,無,有,無,無,無,無,無,無,
久手川住宅　市営1号棟、2号棟,石川県輪島市久手川町石田143番地,石川県,輪島市,37.389134,136.923641,0768-23-1156,,,,,928-0002,2.00002E+12,輪島市,,,,,市営住宅,無,無,無,無,無,無,無,無,無,無,無,無,無,無,無,無,無,
久手川住宅　市営3号棟,石川県輪島市久手川町石田150番地,石川県,輪島市,37.38919,136.923158,0768-23-1156,,,,,928-0002,2.00002E+12,輪島市,,,,,市営住宅,無,無,無,無,無,無,無,無,無,無,無,無,無,無,無,無,無,
中浜住宅,石川県輪島市河井町4部93番地2,石川県,輪島市,37.394917,136.904154,0768-23-1156,,,,,928-0001,2.00002E+12,輪島市,,,,,市営住宅,無,無,無,無,無,無,無,無,無,無,無,無,無,無,無,無,無,
大倉住宅,石川県輪島市町野町大川38字1番地1,石川県,輪島市,37.4426,137.071407,0768-23-1156,,,,,928-0231,2.00002E+12,輪島市,,,,,市営住宅,無,無,無,無,無,無,無,無,無,無,無,無,無,無,無,無,無,
本市住宅,石川県輪島市門前町本市6の36番地1,石川県,輪島市,37.293655,136.789794,0768-23-1156,,,,,927-2171,2.00002E+12,輪島市,,,,,市営住宅,無,無,無,無,無,無,無,無,無,無,無,無,無,無,無,無,無,
舘住宅,石川県輪島市門前町舘トの32番地1,石川県,輪島市,37.284478,136.763083,0768-23-1156,,,,,927-2173,2.00002E+12,輪島市,,,,,市営住宅,無,無,無,無,無,無,無,無,無,無,無,無,無,無,無,無,無,
広岡住宅,石川県輪島市門前町広岡7の1番地 他,石川県,輪島市,37.283477,136.762555,0768-23-1156,,,,,927-2174,2.00002E+12,輪島市,,,,,市営住宅,無,無,無,無,無,無,無,無,無,無,無,無,無,無,無,無,無,
松風台住宅,石川県輪島市門前町道下7の184番地2,石川県,輪島市,37.287399,136.74502,0768-23-1156,,,,,927-2164,2.00002E+12,輪島市,,,,,市営住宅,無,無,無,無,無,無,無,無,無,無,無,無,無,無,無,無,無,
さくら住宅,石川県輪島市門前町和田2の10番地1,石川県,輪島市,37.292092,136.766437,0768-23-1156,,,,,927-2176,2.00002E+12,輪島市,,,,,市営住宅,無,無,無,無,無,無,無,無,無,無,無,無,無,無,無,無,無,
マリンタウン住宅,石川県輪島市マリンタウン5番地,石川県,輪島市,37.394908,136.913834,0768-23-1156,,,,,928-0008,2.00002E+12,輪島市,,,,,市営住宅,無,無,無,無,無,無,無,無,無,無,無,無,無,無,無,無,無,
宅田住宅,石川県輪島市宅田町25字4番地1,石川県,輪島市,37.386781,136.898892,0768-23-1156,,,,,928-0022,2.00002E+12,輪島市,,,,,市営住宅,無,無,無,無,無,無,無,無,無,無,無,無,無,無,無,無,無,
横地住宅,石川県輪島市横地町3部4番地8 他,石川県,輪島市,37.378725,136.906889,0768-23-1156,,,,,928-0012,2.00002E+12,輪島市,,,,,市営住宅,無,無,無,無,無,無,無,無,無,無,無,無,無,無,無,無,無,
清水東住宅,石川県輪島市門前町清水1の11番地3,石川県,輪島市,37.289172,136.767744,0768-23-1156,,,,,927-2175,2.00002E+12,輪島市,,,,,市営住宅,無,無,無,無,無,無,無,無,無,無,無,無,無,無,無,無,無,
道下東町住宅,石川県輪島市門前町道下24の46番地7,石川県,輪島市,37.290737,136.746232,0768-23-1156,,,,,927-2164,2.00002E+12,輪島市,,,,,市営住宅,無,無,無,無,無,無,無,無,無,無,無,無,無,無,無,無,無,
一本松総合運動公園,石川県輪島市河井町;杉平町,石川県,輪島市,37.387976,136.914904,0768-23-1156,,,,,,2.00002E+12,輪島市,月・火・水・木・金・土・日曜日、祝日,0:00,23:59,花見シーズンにはライトアップ実施,輪島市内でも有数の桜の名所として知られ、公園内には約980本の桜（ソメイヨシノ;ヨシノ;八重桜;山桜;しだれ桜;ワジマオオキクなど）が咲き誇り、市内外からたくさんの花見客が訪れます;毎年4月上旬～中旬が見ごろです,有,無,無,有,無,無,無,有,無,無,有,無,無,無,有,無,有,
鳳来山公園,石川県輪島市鳳至町寺山4-1,石川県,輪島市,37.40054,136.896408,0768-23-1156,,,,,928-0073,2.00002E+12,輪島市,月・火・水・木・金・土・日曜日、祝日,0:00,23:59,夜間は、照明が無く真っ暗になります,風致公園（広場、ミニトイレ）,無,無,無,有,無,無,無,有,無,無,有,無,無,無,有,無,有,
輪島市健康ふれあい広場,石川県輪島市河井町16部1番地1,石川県,輪島市,37.389761,136.90807,0768-23-1156,,,,,928-0001,2.00002E+12,輪島市,月・火・水・木・金・土・日曜日、祝日,0:00,23:59,有料の駐車場（1日500円・入庫2時間以内の出庫は無料）があります,多目的広場（広場、遊具、ミニトイレ）,無,無,無,有,無,無,無,有,無,無,有,無,無,有,有,無,有,
マリンタウンこどもの広場,石川県輪島市マリンタウン9番地内,石川県,輪島市,37.396423,136.909819,0768-23-1156,,,,,928-0008,2.00002E+12,輪島市,月・火・水・木・金・土・日曜日、祝日,0:00,23:59,ふわふわドームは9:00～17:00;公衆トイレは9:00～17:00;夏期・冬期は変更となる場合があります,マリンタウン緑地内（大型複合遊具、ふわふわドーム、四阿、公衆トイレ）,無,無,無,有,無,無,無,有,無,無,有,無,無,有,有,無,有,
輪島市漆の里広場,石川県輪島市水守町四十苅6番地,石川県,輪島市,37.389524,136.891515,0768-22-9788,,urushiart@titan.ocn.ne.jp,,https://ja-jp.facebook.com/urushiart/,928-0063,2.00002E+12,輪島市,月・火・水・木・金・土・日曜日、祝日,0:00,23:59,夜間は、照明が無く真っ暗になります,"敷地面積14,235.36平方メートル;ウルシ、ケヤキ、ホオノキ、アブラギリ、ツツジ、ハマヒサカキ、ハギなどが鑑賞できます;園亭あり;駐車場は大型バス4台、乗用車42台",無,無,無,無,無,無,無,無,無,無,無,無,無,無,無,無,無,
町野公園,石川県輪島市町野町鈴屋イ-2-1,石川県,輪島市,37.425312,137.089183,,,,,,928-0218,2.00002E+12,輪島市,月・火・水・木・金・土・日曜日、祝日,0:00,23:59,夜間は、照明が無く真っ暗になります,ゲートボール場;トイレ;展望台;忠魂碑,有,無,無,有,無,無,無,有,無,無,無,無,無,無,有,無,有,
三蛇山公園,石川県輪島市下黒川町,石川県,輪島市,37.363267,136.841884,,,,,,928-0044,2.00002E+12,輪島市,月・火・水・木・金・土・日曜日、祝日,0:00,23:59,夜間は、照明が無く真っ暗になります,"約2,300平方メートルの湿地帯に4,000株のミズバショウが群生するミズバショウの名所;見ごろは4月中旬～5月上旬",無,無,無,無,無,無,無,無,無,無,無,無,無,無,無,無,無,
南町子供の広場,石川県輪島市堀町3字3-1,石川県,輪島市,37.390103,136.895665,,,,,,928-0062,2.00002E+12,輪島市,月・火・水・木・金・土・日曜日、祝日,0:00,23:59,夜間は、照明が無く真っ暗になります,すべり台やシーソー、ブランコ等がありますが、安全性確認のため利用を禁止しています,有,無,無,有,無,無,無,有,無,無,無,無,無,無,有,無,有,
上町小公園,石川県輪島市鳳至町上町,石川県,輪島市,37.395353,136.898508,0768-23-1176,,,,,928-0077,2.00002E+12,輪島市,月・火・水・木・金・土・日曜日、祝日,0:00,23:59,,地域住民が散歩等に利用する小公園です,有,無,無,無,無,無,無,有,無,無,無,無,無,無,有,無,有,
望楼台公園,石川県輪島市門前町皆月大峯甲1番地1,石川県,輪島市,37.361946,136.760495,,,,,,927-2271,2.00002E+12,輪島市,月・火・水・木・金・土・日曜日、祝日,0:00,23:59,夜間は、照明が無く真っ暗になります,旧海軍望楼跡で、現在は農村公園として整備されています,無,無,無,無,無,無,無,有,無,無,無,無,無,無,有,無,無,
あすなろ公園,石川県輪島市門前町浦上45951,石川県,輪島市,37.304636,136.796595,,,,,,927-2102,2.00002E+12,輪島市,月・火・水・木・金・土・日曜日、祝日,0:00,23:59,夜間は、照明が無く真っ暗になります,アテの元祖へとつながる公園です;地域の緊急避難場所にもなっています,無,無,無,無,無,無,無,有,無,無,無,無,無,無,有,無,無,
上本郷農村公園,石川県輪島市門前町別所2の91番地,石川県,輪島市,37.274903,136.840188,,,,,,927-2125,2.00002E+12,輪島市,月・火・水・木・金・土・日曜日、祝日,0:00,23:59,夜間は、照明が無く真っ暗になります,地域の集会所に隣接した広場で、緊急避難場所にもなっています,無,無,無,無,無,無,無,有,無,無,無,無,無,無,有,無,無,
下本郷農村公園,石川県輪島市門前町谷口12の28番地,石川県,輪島市,37.287442,136.81325,,,,,,927-2114,2.00002E+12,輪島市,月・火・水・木・金・土・日曜日、祝日,0:00,23:59,夜間は、照明が無く真っ暗になります,地域の集会所に隣接した広場で、緊急避難場所にもなっています,無,無,無,無,無,無,無,有,無,無,無,無,無,無,有,無,無,
南農村公園,石川県輪島市門前町南カの15番地,石川県,輪島市,37.253864,136.731446,,,,,,927-2365,2.00002E+12,輪島市,月・火・水・木・金・土・日曜日、祝日,0:00,23:59,夜間は、照明が無く真っ暗になります,阿岸本誓寺の近くにある広場で、地域の緊急避難場所にもなっています,無,無,無,無,無,無,無,有,無,無,無,無,無,無,有,無,無,
道下農村公園,石川県輪島市門前町道下104の2番地1,石川県,輪島市,37.288243,136.744369,0768-43-1061,,ko-morooka@po.city.wajima.ishikawa.jp,,,927-2164,2.00002E+12,輪島市,月・火・水・木・金・土・日曜日、祝日,0:00,23:59,夜間は、照明が無く真っ暗になります,諸岡公民館の近くにある広場で、地域の緊急避難場所にもなっています,無,無,無,無,無,無,無,有,無,無,無,無,無,無,有,無,無,
大生農村公園,石川県輪島市門前町大生ろの11番地2,石川県,輪島市,37.273576,136.754367,,,,,,927-2163,2.00002E+12,輪島市,月・火・水・木・金・土・日曜日、祝日,0:00,23:59,夜間は、照明が無く真っ暗になります,,無,無,無,無,無,無,無,有,無,無,無,無,無,無,有,無,無,
市立輪島病院,石川県輪島市山岸町は1番1地,石川県,輪島市,37.384105,136.905549,0768-22-2222,,byouin@city.wajima.lg.jp,,,928-8585,2.00002E+12,輪島市,月・火・水・木・金曜日,9:00,17:15,診察終了時間は診療科毎に異なります;眼科は月・火・木曜日、精神科は月・木曜日、皮膚科は月・水・金曜日のみ診療,外来診療は、外科、脳神経外科、整形外科、小児科、耳鼻咽喉科、内科、泌尿器科、眼科、精神科、皮膚科、産婦人科、放射線科、リハビリテーション科;救急外来あり,有,有,有,有,スロープ有;エレベータ有,一部有,無,一部有,無,一部有,有,無,有,有,有,無,有,https://www.city.wajima.ishikawa.jp/wajimahp/
市立輪島病院西保診療所,石川県輪島市大沢町ホサソ201番地,石川県,輪島市,37.375175,136.803076,0768-36-2001,,byouin@city.wajima.lg.jp,,,928-0054,2.00002E+12,輪島市,毎月第1水曜日,14:00,16:00,,内科,有,有,無,有,スロープ有,無,無,一部有,無,一部有,有,無,無,無,有,無,有,
市立輪島病院南志見診療所,石川県輪島市小田屋町ロ部4番地,石川県,輪島市,37.432465,137.030501,0768-22-2222,,byouin@city.wajima.lg.jp,,,928-0251,2.00002E+12,輪島市,毎月第2・4水曜日,14:00,16:00,,内科,有,有,無,無,スロープ有,無,無,一部有,無,一部有,無,無,無,無,有,無,有,
市立輪島病院舳倉診療所,石川県輪島市海士町所属舳倉島出邑山1番4,石川県,輪島市,37.85056,136.918113,0768-22-7500,,byouin@city.wajima.lg.jp,,,928-0072,2.00002E+12,輪島市,月・火・水・木・金曜日,9:00,17:00,受付は16:00まで,内科,無,無,無,無,,無,無,一部有,無,一部有,無,無,無,無,有,無,有,
市立輪島病院七浦診療所,石川県輪島市門前町鵜山12の50番地,石川県,輪島市,37.345281,136.752807,0768-22-2222,,byouin@city.wajima.lg.jp,,,927-2281,2.00002E+12,輪島市,毎月第3水曜日,14:00,16:00,,内科,有,有,無,有,スロープ有,無,無,一部有,無,一部有,有,無,無,無,有,無,有,
輪島市国民健康保険門前診療所,石川県輪島市門前町深田21の17番地1,石川県,輪島市,37.288288,136.779176,0768-42-0114,,seikatsu@city.wajima.lg.jp,,,927-2153,2.00002E+12,輪島市,毎週月・水曜日,8:30,14:30,"月曜日は8:30～11:30,13:00～14:30、水曜日は8:30～11:30診療",眼科,有,有,無,有,スロープ有,有,読上げ支援有,有,無,有,有,無,無,有,有,無,有,
輪島クリーンセンター(埋立処分場),石川県輪島市美谷町11字2番地,石川県,輪島市,37.381514,136.850467,0768-22-5741,,kankyou@city.wajima.lg.jp,,,928-0066,2.00002E+12,輪島市,月・火・水・木・金・土曜日、祝日,8:30,17:00,土曜日の午後、日曜日、12/31～1/3は休業,"敷地面積185,000平方メートル;準好気性埋立;埋立面積23,000平方メートル;埋立容量250,000立方メートル;浸出水処理施設 接触ばっ気＋高度処理　処理能力90立方メートル/日",無,無,無,無,無,無,無,有,無,無,無,無,無,無,有,無,無,
輪島クリーンセンター宅田分場,石川県輪島市宅田町22字18番地,石川県,輪島市,37.383179,136.89801,0768-22-2238,,kankyou@city.wajima.lg.jp,,,928-0022,2.00002E+12,輪島市,月・火・水・木・金・土曜日、祝日,8:30,17:00,土曜日の午後、日曜日、12/31～1/3は休業,受入資源ごみ：ペットボトル;空き缶;空きビン;発泡スチロール・トレイ;紙類,無,無,無,無,無,無,無,有,無,無,無,無,無,無,有,無,無,
輪島・穴水クリーンセンター,石川県輪島市門前町原1の15番地1,石川県,輪島市,37.270119,136.86645,0768-42-0639,,kankyou@city.wajima.lg.jp,,,927-2122,2.00002E+12,輪島市,月・火・水・木・金・土曜日、祝日,9:00,16:30,土曜日の午後、日曜日、12/31～1/3は休業,"敷地面積12,984平方メートル;処理能力35ｔ/日(16ｈ)",有,有,無,有,エレベータ有,無,音声ガイド有,無,無,無,有,無,無,無,無,無,有,http://www.waanakankyo.jp
輪島市移住促進住宅,石川県輪島市鳳至町畠田99番26,石川県,輪島市,37.391153,136.894904,0768-23-1156,,machi@city.wajima.lg.jp,,,928-0079,2.00002E+12,輪島市,,,,,輪島市への移住促進を目的とした移住者向け賃貸住宅です;世帯ルーム6戸、シェアルーム6戸18部屋、体験ルーム1戸、居住者用パブリックルーム（非賃貸）,無,無,無,無,無,無,無,無,無,無,無,無,無,無,有,無,無,
やすらぎの杜,石川県輪島市三井町新保レ字4番地1,石川県,輪島市,37.285808,136.889842,0768-23-4194,,yasuraginomori@yasuragino-mori.jp,,,929-2376,2.00002E+12,輪島市,月・火・水・木・金・土・日曜日、祝日,8:30,17:15,1/1及び火葬炉の点検日は休業,火葬炉3炉;動物炉1炉,有,有,無,有,無,無,無,無,無,無,有,有,有,有,有,無,有,http://www.waanakankyo.jp/kasouba.htm
河井浜公衆便所,石川県輪島市河井町1部81番地1地先,石川県,輪島市,37.396855,136.902904,0768-23-1156,,,,,928-0001,2.00002E+12,輪島市,月・火・水・木・金・土・日曜日、祝日,0:00,23:59,終日利用可能,県共有施設,有,無,無,有,無,有,無,有,無,無,有,有,無,有,有,無,有,
上大沢公衆便所,石川県輪島市上大沢町4-甲-2,石川県,輪島市,37.3685,136.783572,,,kankou@city.wajima.lg.jp,,,928-0055,2.00002E+12,輪島市,月・火・水・木・金・土・日曜日、祝日,0:00,23:59,終日利用可能,上大沢の間垣の里に近い「寄り道パーキング上大沢」にある公衆便所です,有,無,無,無,無,無,無,有,無,無,有,無,無,無,無,無,有,
東馬場町公衆便所,石川県輪島市河井町4部72番地1,石川県,輪島市,37.394227,136.905634,,,kankyou@city.wajima.lg.jp,,,928-0001,2.00002E+12,輪島市,月・火・水・木・金・土・日曜日、祝日,0:00,23:59,終日利用可能,重蔵神社や輪島市足湯施設「湯楽里」、輪島工房長屋の近くにある公衆便所です,有,無,無,有,スロープ有,無,無,有,無,無,無,無,無,有,有,無,有,
鴨ヶ浦公衆便所,石川県輪島市輪島崎町2部,石川県,輪島市,37.406051,136.897744,,,kankyou@city.wajima.lg.jp,,,928-0071,2.00002E+12,輪島市,月・火・水・木・金・土・日曜日、祝日,0:00,23:59,終日利用可能,景勝地・袖ヶ浜海岸の近くにある公衆便所です,有,無,無,有,スロープ有,無,無,有,無,無,無,有,無,無,有,無,有,
曽々木シーサイドパーク公衆便所,石川県輪島市町野町曽々木サ部45番地1,石川県,輪島市,37.454921,137.07336,,,kankyou@city.wajima.lg.jp,,,928-0206,2.00002E+12,輪島市,月・火・水・木・金・土・日曜日、祝日,0:00,23:59,終日利用可能,国の名勝及び天然記念物に指定されている曽々木海岸に面した場所にある公衆便所です,無,無,無,無,無,無,無,有,無,無,無,無,無,無,有,無,有,
櫛比の庄駐車場公衆便所,石川県輪島市門前町広岡5-27-2,石川県,輪島市,37.286789,136.766856,,,shinkou@city.wajima.lg.jp,,,927-2174,2.00002E+12,輪島市,月・火・水・木・金・土・日曜日、祝日,0:00,23:59,終日利用可能,石川県立門前高校のそばにある公衆便所です,有,無,無,有,無,無,無,有,無,無,無,無,無,無,有,無,有,
門前深見地区公衆便所,石川県輪島市門前町深見深見漁港内,石川県,輪島市,37.307226,136.726522,,,,,,927-2167,2.00002E+12,輪島市,月・火・水・木・金・土・日曜日、祝日,0:00,23:59,終日利用可能,男性用便所2（小便器1、和式大便器1）;女性用便所2（和式大便器2）,無,無,無,無,無,無,無,有,無,無,無,無,無,無,無,無,無,
猿山灯台娑婆捨公衆便所,石川県輪島市門前町吉浦サル山1番地1,石川県,輪島市,37.326489,136.726828,,,shinkou@city.wajima.lg.jp,,,927-2285,2.00002E+12,輪島市,月・火・水・木・金・土・日曜日、祝日,0:00,23:59,終日利用可能,猿山灯台へ入る道の手前にある公衆便所です,有,無,無,無,無,無,無,有,無,無,無,無,無,無,有,無,有,
輪島綜合自動車学校,石川県輪島市横地町9字90,石川県,輪島市,37.371428,136.906654,,,kanri@city.wajima.lg.jp,,,928-0012,2.00002E+12,輪島市,月・火・水・木・金・土曜日,8:50,18:30,日・祝日及び年末年始は休校,教習時間：午前 1限～4限、午後 5限～8限、夜間 9限（繁忙期は10限まで）;無料送迎あり,無,無,無,無,無,無,無,有,無,無,無,無,無,無,無,無,無,https://ringisland.jp/jidousyagakkou2.html
三角州公衆便所,石川県輪島市二ツ屋町4字9番地1,石川県,輪島市,37.391253,136.89896,,,kanri@city.wajima.lg.jp,,,928-0021,2.00002E+12,輪島市,月・火・水・木・金・土・日曜日、祝日,0:00,23:59,終日利用可能,,有,無,無,有,スロープ有,無,無,有,無,無,無,無,無,無,無,無,無,
琴ヶ浜泣き砂パーク公衆便所,石川県輪島市門前町剱地ルの165番地,石川県,輪島市,37.226309,136.704426,,,kankyou@city.wajima.lg.jp,,,927-2342,2.00002E+12,輪島市,月・火・水・木・金・土・日曜日、祝日,0:00,23:59,終日利用可能,輪島市指定天然記念物である琴ヶ浜（泣き砂の浜）に面した場所に設置されている公衆便所です,無,無,無,有,スロープ有,無,無,有,無,無,無,無,無,無,有,無,有,
窓岩ポケットパーク公衆便所,石川県輪島市町野町曽々木オ19-1,石川県,輪島市,37.458904,137.076228,,,kankyou@city.wajima.lg.jp,,,928-0206,2.00002E+12,輪島市,月・火・水・木・金・土・日曜日、祝日,0:00,23:59,終日利用可能,国指定名勝・曽々木海岸のシンボルである「窓岩」の近くに設置されている公衆便所です,無,無,無,有,スロープ有,無,無,有,無,無,無,無,無,無,有,無,有,
光浦ポケットパーク公衆便所,石川県輪島市光浦町48字51番地;50番地2,石川県,輪島市,37.401137,136.891287,,,kankyou@city.wajima.lg.jp,,,928-0067,2.00002E+12,輪島市,月・火・水・木・金・土・日曜日、祝日,0:00,23:59,終日利用可能,日本海に面した光浦ポケットパークに設置されている公衆便所です,無,無,無,有,スロープ有,無,無,有,無,無,無,無,無,有,有,無,有,
門前水質管理センター,石川県輪島市門前町道下はの11番地1,石川県,輪島市,37.289156,136.740238,0768-22-2220,,jyougesuidou@city.wajima.lg.jp,,,927-2164,2.00002E+12,輪島市,利用不可,,,見学を希望される場合は、輪島市上下水道局へ連絡のこと,,無,無,無,無,無,無,無,無,無,無,無,無,無,無,無,無,無,
剱地浄化センター,石川県輪島市門前町馬場あの25番地,石川県,輪島市,37.228063,136.708673,0768-22-2220,,jyougesuidou@city.wajima.lg.jp,,,927-2333,2.00002E+12,輪島市,利用不可,,,見学を希望される場合は、輪島市上下水道局へ連絡のこと,,無,無,無,無,無,無,無,無,無,無,無,無,無,無,無,無,無,
輪島市浄化センター,石川県輪島市山本町高堂川原1番地1,石川県,輪島市,37.378146,136.880658,0768-22-2220,,jyougesuidou@city.wajima.lg.jp,,,928-0042,2.00002E+12,輪島市,利用不可,,,見学を希望される場合は、輪島市上下水道局へ連絡のこと,,無,無,無,有,スロープ有,無,無,無,無,無,無,無,無,無,無,無,無,
穴水町し尿処理施設,石川県鳳珠郡穴水町字鵜島9の3,石川県,鳳珠郡穴水町,37.22352,136.89354,（0768）52-0720,,,,,,6.00002E+12,穴水町,月火水木金,8:30,17:00,,し尿を処理する施設,否,無,無,無,無,無,無,無,無,無,無,無,無,無,無,無,無,
穴水町役場,石川県鳳珠郡穴水町字川島ラの174番地,石川県,鳳珠郡穴水町,37.231137,136.9123,（0768）52-0300,,,,,,6.00002E+12,穴水町,月火水木金,8:30,17:15,,,可,有,無,有,有,無,無,無,無,無,有,有,無,有,無,無,有,https://www.town.anamizu.lg.jp/
穴水町山村開発センター,石川県鳳珠郡穴水町字川島ラの174番地,石川県,鳳珠郡穴水町,37.231137,136.9123,（0768）52-0300,,,,,,6.00002E+12,穴水町,月火水木金,8:30,17:15,,,可,有,無,有,有,無,無,無,無,無,有,有,無,有,無,無,有,https://www.town.anamizu.lg.jp/
穴水町地域情報センタ-,石川県鳳珠郡穴水町字川島ラの174番地,石川県,鳳珠郡穴水町,37.231137,136.9123,（0768）52-0300,,,,,,6.00002E+12,穴水町,月火水木金,8:30,17:15,,,否,無,無,無,無,無,無,無,無,無,有,無,無,無,無,無,無,
公立穴水総合病院,石川県鳳珠郡穴水町字川島タの8番地,石川県,鳳珠郡穴水町,37.233614,136.909038,（0768）52-0511,,,,,,6.00002E+12,穴水町,,,,,,可,有,無,有,有,無,無,無,無,無,有,有,有,有,無,無,有,http://www.anamizu.jp/
公立穴水総合病院　兜診療所,石川県鳳珠郡穴水町字甲レの152番地4,石川県,鳳珠郡穴水町,37.205878,137.024566,（0768）58-1001,,,,,,6.00002E+12,穴水町,,,,,,可,有,無,有,有,無,無,無,無,無,有,無,無,無,無,無,無,
老人保健施設あゆみの里,石川県鳳珠郡穴水町字川島タの38番地,石川県,鳳珠郡穴水町,37.23349,136.910133,（0768）52-3310,,,,,,6.00002E+12,穴水町,月火水木金,8:30,17:15,,,可,有,無,有,有,無,無,無,無,無,有,無,有,有,無,無,無,
穴水町上野浄水場,石川県鳳珠郡穴水町字地蔵坊イの1番地,石川県,鳳珠郡穴水町,37.245109,136.895282,（0768）52-3130,,,,,,6.00002E+12,穴水町,月火水木金,8:30,17:15,,,否,無,無,無,無,無,無,無,無,無,無,無,無,無,無,無,無,
穴水町保健センター,石川県鳳珠郡穴水町字川島タの38番地,石川県,鳳珠郡穴水町,37.23349,136.910133,（0768）52-3589,,,,,,6.00002E+12,穴水町,月火水木金,8:30,17:15,,,可,有,無,有,有,無,無,無,無,無,有,無,有,有,無,無,有,
穴水町生涯現役センター,石川県鳳珠郡穴水町字大町ト3番地3,石川県,鳳珠郡穴水町,37.228187,136.906008,（0768）52-3220,,,,,,6.00002E+12,穴水町,月火水木金,8:30,17:15,,,否,無,無,無,無,無,無,無,無,無,無,無,無,無,無,無,無,
穴水町林業センタ-,石川県鳳珠郡穴水町字川島サの29番地,石川県,鳳珠郡穴水町,37.23122,136.909998,（0768）52-2632,,,,,,6.00002E+12,穴水町,月火水木金,8:30,17:15,,,可,無,無,無,有,無,無,無,無,無,無,無,無,有,無,無,無,
奥能登広域圏事務組合穴水消防署,石川県鳳珠郡穴水町字平野トの1番地,石川県,鳳珠郡穴水町,37.249471,136.889925,（0768）52-2011,,,,,,7.00002E+12,奥能登広域圏事務組合,,,,,,可,無,無,有,無,無,無,無,無,無,有,無,無,無,無,無,無,https://www.okunoto119.jp/
ふるさと体験村　　四季の丘,石川県鳳珠郡穴水町字山中タの37番地10,石川県,鳳珠郡穴水町,37.230362,136.995125,,,,,,,6.00002E+12,穴水町,,,,,,否,無,無,無,無,無,無,無,無,無,無,無,無,無,無,無,無,
島崎地区集会所,石川県鳳珠郡穴水町字根木イの130番地 ,石川県,鳳珠郡穴水町,37.196448,136.908967,,,,,,,6.00002E+12,穴水町,月火水木金土日,9:00,21:00,,,可,無,無,無,有,無,無,無,無,無,無,無,無,無,無,無,無,
曽良集会所,石川県鳳珠郡穴水町字曽良ヌの32番地 ,石川県,鳳珠郡穴水町,37.191712,137.019875,,,,,,,6.00002E+12,穴水町,月火水木金土日,9:00,21:00,,,否,無,無,無,無,無,無,無,無,無,無,無,無,無,無,無,無,
沖波集会所,石川県鳳珠郡穴水町字沖波ホの338番地 ,石川県,鳳珠郡穴水町,37.209545,137.056103,,,,,,,6.00002E+12,穴水町,月火水木金土日,9:00,21:00,,,否,無,無,無,無,無,無,無,無,無,無,無,無,無,無,無,無,
山中集会所,石川県鳳珠郡穴水町字山中ルの15番地 ,石川県,鳳珠郡穴水町,37.23457,137.013356,,,,,,,6.00002E+12,穴水町,月火水木金土日,9:00,21:00,,,否,無,無,無,無,無,無,無,無,無,無,無,無,無,無,無,無,
明千寺集会所,石川県鳳珠郡穴水町字明千寺カの70番地 ,石川県,鳳珠郡穴水町,37.229643,137.0578,,,,,,,6.00002E+12,穴水町,月火水木金土日,9:00,21:00,,,否,無,無,無,無,無,無,無,無,無,無,無,無,無,無,無,無,
前波集会所,石川県鳳珠郡穴水町字前波ホの177番1地 ,石川県,鳳珠郡穴水町,37.22096,137.067432,,,,,,,6.00002E+12,穴水町,月火水木金土日,9:00,21:00,,,否,無,無,無,無,無,無,無,無,無,無,無,無,無,無,無,無,
下唐川集会所,石川県鳳珠郡穴水町字下唐川ヘの18番1地 ,石川県,鳳珠郡穴水町,37.247827,136.85993,,,,,,,6.00002E+12,穴水町,月火水木金土日,9:00,21:00,,,否,無,無,無,無,無,無,無,無,無,無,無,無,無,無,無,無,
曽山集会所,石川県鳳珠郡穴水町字曽山チの118番地,石川県,鳳珠郡穴水町,37.252064,136.995573,,,,,,,6.00002E+12,穴水町,月火水木金土日,9:00,21:00,,,否,無,無,無,無,無,無,無,無,無,無,無,無,無,無,無,無,
河内地区コミュニティセンター,石川県鳳珠郡穴水町字河内にの35番地5,石川県,鳳珠郡穴水町,37.225401,136.867025,,,,,,,6.00002E+12,穴水町,月火水木金土日,9:00,21:00,,,可,無,無,無,有,無,無,無,無,無,有,無,無,無,無,無,無,
乙ケ崎集会所,石川県鳳珠郡穴水町字乙ケ崎ホの44番地,石川県,鳳珠郡穴水町,37.220637,136.907305,,,,,,,6.00002E+12,穴水町,月火水木金土日,9:00,21:00,,,否,無,無,無,無,無,無,無,無,無,無,無,無,無,無,無,無,
宇加川集会所,石川県鳳珠郡穴水町字宇加川ルの61番地,石川県,鳳珠郡穴水町,37.226504,137.066381,,,,,,,6.00002E+12,穴水町,月火水木金土日,9:00,21:00,,,否,無,無,無,無,無,無,無,無,無,無,無,無,無,無,無,無,
梶・波志借地区集会所,石川県鳳珠郡穴水町字波志借ロの11番地,石川県,鳳珠郡穴水町,37.244226,136.940922,,,,,,,6.00002E+12,穴水町,月火水木金土日,9:00,21:00,,,否,無,無,無,無,無,無,無,無,無,無,無,無,無,無,無,無,
宇留地地区集会所,石川県鳳珠郡穴水町字宇留地ツの101番1地,石川県,鳳珠郡穴水町,37.230463,136.879567,,,,,,,6.00002E+12,穴水町,月火水木金土日,9:00,21:00,,,可,無,無,無,有,無,無,無,無,無,無,無,無,無,無,無,無,
旭ケ丘婦人ホ－ム,石川県鳳珠郡穴水町字旭ケ丘にの17番地,石川県,鳳珠郡穴水町,,,,,,,,,6.00002E+12,穴水町,月火水木金土日,9:00,21:00,,,否,無,無,無,無,無,無,無,無,無,無,無,無,無,無,無,無,
鹿波集会所,石川県鳳珠郡穴水町字鹿波55の196番地,石川県,鳳珠郡穴水町,37.202993,136.985328,,,,,,,6.00002E+12,穴水町,月火水木金土日,9:00,21:00,,,可,無,無,無,有,無,無,無,無,無,無,無,無,無,無,無,無,
来迎寺地区集会所,石川県鳳珠郡穴水町字大町ヨの191番地,石川県,鳳珠郡穴水町,37.226226,136.894244,,,,,,,6.00002E+12,穴水町,月火水木金土日,9:00,21:00,,,否,無,無,無,無,無,無,無,無,無,無,無,無,無,無,無,無,
木原集会所,石川県鳳珠郡穴水町字木原ろの159番地,石川県,鳳珠郡穴水町,37.28526,136.963129,,,,,,,6.00002E+12,穴水町,月火水木金土日,9:00,21:00,,,否,無,無,無,無,無,無,無,無,無,無,無,無,無,無,無,無,
古君地区集会所,石川県鳳珠郡穴水町字古君ハの183番1地,石川県,鳳珠郡穴水町,37.235921,137.071622,,,,,,,6.00002E+12,穴水町,月火水木金土日,9:00,21:00,,,否,無,無,無,無,無,無,無,無,無,無,無,無,無,無,無,無,
志ケ浦コミュニティセンター,石川県鳳珠郡穴水町字志ケ浦いの36番地,石川県,鳳珠郡穴水町,37.204107,136.907501,,,,,,,6.00002E+12,穴水町,月火水木金土日,9:00,21:00,,,可,無,無,無,有,無,無,無,無,無,無,無,無,無,無,無,無,
岩車集会所,石川県鳳珠郡穴水町字岩チの141番地,石川県,鳳珠郡穴水町,37.218853,136.952315,,,,,,,6.00002E+12,穴水町,月火水木金土日,9:00,21:00,,,否,無,無,無,無,無,無,無,無,無,無,無,無,無,無,無,無,
曽福地区集会所,石川県鳳珠郡穴水町字曽福チの71番地,石川県,鳳珠郡穴水町,37.174417,136.893523,,,,,,,6.00002E+12,穴水町,月火水木金土日,9:00,21:00,,,可,無,無,無,有,無,無,無,無,無,無,無,無,無,無,無,無,
中居地区活性化施設,石川県鳳珠郡穴水町字中居南1字157番地,石川県,鳳珠郡穴水町,37.228714,136.944705,,,,,,,6.00002E+12,穴水町,月火水木金土日,9:00,21:00,,,否,無,無,無,無,無,無,無,無,無,無,無,無,無,無,無,無,
鹿島地区コミュニティセンター,石川県鳳珠郡穴水町字鹿島いの33番1地,石川県,鳳珠郡穴水町,37.184887,136.898784,,,,,,,6.00002E+12,穴水町,月火水木金土日,9:00,21:00,,,可,無,無,無,有,無,無,無,無,無,無,無,無,無,無,無,無,
上中集会所,石川県鳳珠郡穴水町字上中7の60番地,石川県,鳳珠郡穴水町,37.240319,136.817583,,,,,,,6.00002E+12,穴水町,月火水木金土日,9:00,21:00,,,可,無,無,無,有,無,無,無,無,無,無,無,無,無,無,無,無,
新崎地区集会所,石川県鳳珠郡穴水町字新崎2の144番地,石川県,鳳珠郡穴水町,37.202092,136.92514,,,,,,,6.00002E+12,穴水町,月火水木金土日,9:00,21:00,,,可,無,無,無,有,無,無,無,無,無,無,無,無,無,無,無,無,
瑞鳳集会所,石川県鳳珠郡穴水町字瑞鳳いの58番地,石川県,鳳珠郡穴水町,37.251741,136.952595,,,,,,,6.00002E+12,穴水町,月火水木金土日,9:00,21:00,,,否,無,無,無,無,無,無,無,無,無,無,無,無,無,無,無,無,
伊久留集会所,石川県鳳珠郡穴水町字伊久留ヨの6番地,石川県,鳳珠郡穴水町,37.279933,136.981497,,,,,,,6.00002E+12,穴水町,月火水木金土日,9:00,21:00,,,可,無,無,無,有,無,無,無,無,無,無,無,無,無,無,無,無,
藤巻集会所,石川県鳳珠郡穴水町字藤巻リの30番地,石川県,鳳珠郡穴水町,37.27884,136.95695,,,,,,,6.00002E+12,穴水町,月火水木金土日,9:00,21:00,,,否,無,無,無,無,無,無,無,無,無,無,無,無,無,無,無,無,
菅谷・樟谷地区活性化施設,石川県鳳珠郡穴水町字菅谷いの56番地,石川県,鳳珠郡穴水町,37.291133,136.979523,,,,,,,6.00002E+12,穴水町,月火水木金土日,9:00,21:00,,,可,無,無,無,有,無,無,無,無,無,無,無,無,無,無,無,無,
小又地区コミュニティセンター,石川県鳳珠郡穴水町字小ロの22番地,石川県,鳳珠郡穴水町,,,,,,,,,6.00002E+12,穴水町,月火水木金土日,9:00,21:00,,,可,無,無,無,有,無,無,無,無,無,有,無,無,無,無,無,無,
穴水町さわやか交流館プルート,石川県鳳珠郡穴水町字大町トの3番地3,石川県,鳳珠郡穴水町,37.22816,136.905919,,,,,,,6.00002E+12,穴水町,火水木金土日,8:30,17:15,,,可,無,無,有,有,無,無,無,無,無,有,無,無,無,無,無,無,
穴水公民館,石川県鳳珠郡穴水町字大町ﾄの3番地3,石川県,鳳珠郡穴水町,37.22816,136.905919,,,,,,,6.00002E+12,穴水町,火水木金土日,9:00,17:00,,,可,無,無,有,有,無,無,無,無,無,有,無,無,無,無,無,無,
穴水町立図書館,石川県鳳珠郡穴水町字大町トの3番地3,石川県,鳳珠郡穴水町,37.22816,136.905919,,,,,,,6.00002E+12,穴水町,火水木金土日,9:00,17:00,,,可,無,無,有,有,無,無,無,無,無,有,無,無,無,無,無,無,
住吉農村環境改善センター,石川県鳳珠郡穴水町字中居ロの110番地,石川県,鳳珠郡穴水町,36.232127,135.946393,,,,,,,6.00002E+12,穴水町,火水木金土日,9:00,17:00,,,可,無,無,無,有,無,無,無,無,無,有,無,無,無,無,無,無,
住吉公民館,石川県鳳珠郡穴水町字中居ロの110番地,石川県,鳳珠郡穴水町,36.232127,135.946393,,,,,,,6.00002E+12,穴水町,火水木金土日,9:00,17:00,,,可,無,無,無,有,無,無,無,無,無,有,無,無,無,無,無,無,
甲地区生涯学習センター,石川県鳳珠郡穴水町字甲レの155番地,石川県,鳳珠郡穴水町,36.205868,136.024833,,,,,,,6.00002E+12,穴水町,火水木金土日,9:00,17:00,,,可,無,無,無,有,無,無,無,無,無,有,無,無,無,無,無,無,
兜公民館,石川県鳳珠郡穴水町字甲レの155番地,石川県,鳳珠郡穴水町,36.205868,136.024833,,,,,,,6.00002E+12,穴水町,火水木金土日,9:00,17:00,,,可,無,無,無,有,無,無,無,無,無,有,無,無,無,無,無,無,
諸橋公民館,石川県鳳珠郡穴水町字宇加川イの142番地,石川県,鳳珠郡穴水町,37.224776,137.065912,,,,,,,6.00002E+12,穴水町,火水木金土日,9:00,17:00,,,可,無,無,無,有,無,無,無,無,無,有,無,無,無,無,無,無,
歴史民俗資料館,石川県鳳珠郡穴水町字川島ウの25番地,石川県,鳳珠郡穴水町,37.228019,136.915885,,,,,,,6.00002E+12,穴水町,火水木金土日,10:00,16:00,,,否,無,無,無,無,無,無,無,無,無,無,無,無,無,無,無,無,
能登中居鋳物館,石川県鳳珠郡穴水町字中居ロの110番地,石川県,鳳珠郡穴水町,37.232332,136.946694,,,,,,,6.00002E+12,穴水町,火水木金土日,8:30,17:00,,,可,無,無,無,有,無,無,無,無,無,有,無,無,無,無,無,無,
穴水町営フィットネスジムチアフル,石川県鳳珠郡穴水町字川島キの137番地,石川県,鳳珠郡穴水町,37.228143,136.910253,,,,,,,6.00002E+12,穴水町,火水木金土日,10:00,20:00,,,可,無,無,無,有,無,無,無,無,無,有,無,無,無,無,無,無,
穴水中学校第２体育館,石川県鳳珠郡穴水町字大町リの183番地,石川県,鳳珠郡穴水町,37.230055,136.899201,,,,,,,6.00002E+12,穴水町,,,,,,可,無,無,無,有,無,無,無,無,無,有,無,無,無,無,無,無,
穴水町Ｂ＆Ｇ海洋センター,石川県鳳珠郡穴水町字大町ロの19番地,石川県,鳳珠郡穴水町,37.227511,136.908312,,,,,,,6.00002E+12,穴水町,月火水木金土日,9:00,9:00,,,可,無,無,無,有,無,無,無,無,無,有,無,無,無,無,無,無,
穴水町営プール（住吉）,石川県鳳珠郡穴水町字比良イの24番地,石川県,鳳珠郡穴水町,37.234472,136.951633,,,,,,,6.00002E+12,穴水町,,,,,,否,無,無,無,無,無,無,無,無,無,無,無,無,無,無,無,無,
穴水町営野球場,石川県鳳珠郡穴水町字由比ケ丘いの32番地,石川県,鳳珠郡穴水町,37.228403,136.921068,,,,,,,6.00002E+12,穴水町,,,,,,否,無,無,無,無,無,無,無,無,無,無,無,無,無,無,無,無,
穴水町営相撲場,石川県鳳珠郡穴水町字由比ケ丘いの31番地,石川県,鳳珠郡穴水町,37.227105,136.920145,,,,,,,6.00002E+12,穴水町,,,,,,否,無,無,無,無,無,無,無,無,無,無,無,無,無,無,無,無,
穴水陸上競技場,石川県鳳珠郡穴水町字由比ケ丘いの42番地,石川県,鳳珠郡穴水町,37.225503,136.922227,,,,,,,6.00002E+12,穴水町,,,,,,可,無,無,無,無,無,無,無,無,無,無,無,無,無,無,無,無,
穴水町物産館四季彩々,石川県鳳珠郡穴水町字大町チの41番地6,石川県,鳳珠郡穴水町,37.228185,136.904712,,,,,,,6.00002E+12,穴水町,月火水木金土日,9:00,18:00,,,可,無,無,無,有,無,無,無,無,無,有,無,無,無,無,無,無,
穴水町営ゴルフセンター,石川県鳳珠郡穴水町字北七海8の13番地1,石川県,鳳珠郡穴水町,37.270345,136.918402,,,,,,,6.00002E+12,穴水町,月火水木金土日,9:00,22:00,,,否,無,無,無,無,無,無,無,無,無,無,無,無,無,無,無,無,
輪島市穴水町環境衛生施設組合,石川県輪島市門前町原1の15番地1,石川県,輪島市,37.270506,136.867654,,,,,,,3.00002E+12,輪島市穴水町環境衛生施設組合,月火水木金土日,,,,,否,無,無,無,無,無,無,無,無,無,無,無,無,無,無,無,無,
のとふれあい文化センター,石川県鳳珠郡穴水町字内浦5の28番地3,石川県,鳳珠郡穴水町,37.223226,136.921798,,,,,,,2.22001E+12,（一財）穴水町文化・スポーツ振興事業団,月火水木金土日,,,,,可,有,無,有,有,無,無,無,無,無,有,有,有,有,有,無,無,
穴水町国民保養センター ,石川県鳳珠郡穴水町字川島井の61の1番地,石川県,鳳珠郡穴水町,37.222721,136.918567,,,,,,,6.00002E+12,穴水町,月火水木金土日,,,,,可,無,無,有,有,無,無,無,無,無,有,無,無,無,無,無,無,
寄り道パーキング寺家,石川県珠洲市三崎町寺家154-4,石川県,珠洲市,37.494262,137.34351,0768-88-2808,,,,,,2E+12,珠洲市,,,,,地場産品の販売,可,無,無,有,有,無,無,有,無,無,有,有,無,無,無,無,有,https://www.city.suzu.lg.jp/site/kankou/1215.html
寄り道パーキング若山の庄,石川県珠洲市若山町延武い-40-1,石川県,珠洲市,37.460573,137.221842,0768-88-2809,,,,,,2E+12,珠洲市,,,,,地場産品の販売、食堂,可,無,無,有,有,無,無,有,無,無,有,有,無,無,有,無,有,https://www.city.suzu.lg.jp/site/kankou/1627.html　https://sites.google.com/view/wakayama/home?authuser=0
交流施設狼煙（狼煙地区農山漁村活性化施設）,石川県珠洲市狼煙町テ-1-1,石川県,珠洲市,37.525992,137.324432,0768-88-2810,,,,,,2E+12,珠洲市,金土日,8:30,17:00,,地場産品の販売、豆腐作り体験（800円/人）、きなこ挽き体験（100円/人）,可,無,有,有,有,無,無,有,無,無,有,有,無,無,有,無,有,https://www.city.suzu.lg.jp/site/kankou/1655.html　https://noroshi.info
珠洲焼館,石川県珠洲市蛸島町1-2-480,石川県,珠洲市,37.440587,137.326376,0768-88-2811,,,,,,2E+12,珠洲市,,,,,珠洲焼の展示・販売,可,無,無,有,無,無,無,有,無,無,無,無,無,無,無,無,有,https://www.city.suzu.lg.jp/soshiki/7/1479.html
珠洲市陶芸センター,石川県珠洲市蛸島町ミ-1-1,石川県,珠洲市,37.441831,137.331526,0768-88-2812,,,,,,2E+12,珠洲市,火水木金土日,9:00,17:00,,陶芸体験：一般3000円、市内児童1500円、教育課程の一環として利用する市内児童750円、教育課程の一環として利用する市外児童1500円,可,無,無,無,無,無,無,有,無,無,無,無,無,無,無,無,有,https://www.city.suzu.lg.jp/soshiki/7/1463.html
珠洲市揚浜塩田施設,石川県珠洲市清水町1-58-1,石川県,珠洲市,37.486324,137.113779,0768-87-2040,,,,,,3.22E+12,株式会社奥能登塩田村,,,,,「揚げ浜式」製塩法を学ぶことができる道の駅。塩をはじめとした特産品の販売や塩づくり体験もできる。,可,有,無,有,スロープ有、エレベーター有、エスカレーター無,無,無,有,無,有,有,有,無,有,否（店外に飲食スペース有）,無,有,
珠洲市観光交流拠点施設,石川県珠洲市野々江町シ-15,石川県,珠洲市,37.441456,137.270133,0768-82-4688,,,,,,4.22E+12,NPO法人能登すずなり,月火木金土日,10:00,16:00,,市内観光情報の発信及び特産品の販売、交通ターミナル拠点ともなっている。,可,無,無,有,無,有,無,有,無,有,有,有,有,有,否（店外に飲食スペース有）,無,有,
珠洲市多目的ホール,石川県珠洲市飯田町1-1-8,石川県,珠洲市,37.433314,137.26126,0768-82-8200,,,,,,2E+12,珠洲市,月水木金土日,9:00,18:00,,多様な公演が可能な「音」の美しい多目的ホールを中心にアトリエ工房や市民サロンなどを備え、市民の文化活動を支援し、中心市街地の活性化と交流人口の拡大を目的とする施設。,可,有,無,有,スロープ有、エレベーター有、エスカレーター無,有,無,有,無,有,有,無,有,有,可（ホール内は否）,無,有,
木ノ浦観光交流拠点施設,石川県珠洲市折戸町ホ-25-1,石川県,珠洲市,37.527489,137.266571,0768-86-2014,,,,,,8.22E+12,ザアグラリアンテーブル合同会社,月火水木金土日,,,,木ノ浦海岸に面した体験宿泊施設で、コテージ8棟有り。研修や各種体験も可能。,可,有,無,有,スロープ有、エレベーター無、エスカレーター無,有,無,要相談,無,有,有,無,無,有,可（管理棟は無）,無,有,
国民宿舎能登路荘,石川県珠洲市宝立町鵜飼1-30-1,石川県,珠洲市,37.398413,137.244113,0768-84-1621,,,,,,7.22E+12,株式会社のとじ荘,月火水木金土日,,,,見附島を一望できる温泉宿泊施設。外来入浴も可能。,可,有,無,有,スロープ有、エレベーター有、エスカレーター無,有,無,無（要相談）,無,有,有,有,無,有,否（飲食スペースのみ）,無,有,
鉢ケ崎ケビン,石川県珠洲市蛸島町1-1,石川県,珠洲市,37.440421,137.331477,0768-82-4322,,,,,,3.22E+12,一般財団法人鉢ヶ崎リゾート振興協会,,,,,鉢ヶ崎海岸の前に建つケビンで、バス・トイレ・キッチンはもちろん冷暖房やテレビ等も完備。,可,無,無,有,スロープ有、エレベーター無、エスカレーター無,無,無,有,無,有,無,無,無,無,可,無,有,
見付レストハウス,石川県珠洲市宝立町鵜飼1ｰ40ｰ1,石川県,珠洲市,37.401534,137.242721,0768-84-2318,,,,,,7.22E+12,株式会社のとじ荘,,,,,見附島の前に建つレストハウスで、レストランや特産品の販売有り。,可,無,無,有,スロープ有、エレベーター無、エスカレーター無,無,無,要相談,無,有,有,有,無,有,可,無,有,
鉢ケ崎メインバースハウス,石川県珠洲市蛸島町1ｰ7,石川県,珠洲市,37.43968,137.328913,0768-82-6110,,,,,,3.22E+12,一般財団法人鉢ヶ崎リゾート振興協会,,,,,鉢ヶ崎海岸の前に建つレストハウスで、レストラン・売店のほか、シャワー（温水／水）等も有り。,否,無,無,有,無,無,無,有,無,無,有,有,無,有,可,無,無,
珠洲市立上戸小学校,石川県珠洲市上戸町寺社5-74-2,石川県,珠洲市,37.427237,137.249932,0768-88-2821,,,,,,2E+12,珠洲市,,,,,,,,,,,,,,,,,,,,,,,
珠洲市立飯田小学校,石川県珠洲市飯田町19-61,石川県,珠洲市,37.439955,137.259781,0768-88-2822,,,,,,2E+12,珠洲市,,,,,,,,,,,,,,,,,,,,,,,
珠洲市立直小学校,石川県珠洲市野々江町ニ-38-2,石川県,珠洲市,37.443949,137.281698,0768-88-2823,,,,,,2E+12,珠洲市,,,,,,,,,,,,,,,,,,,,,,,
珠洲市立若山小学校,石川県珠洲市若山町古蔵11-100-1,石川県,珠洲市,37.456478,137.242632,0768-88-2824,,,,,,2E+12,珠洲市,,,,,,,,,,,,,,,,,,,,,,,
珠洲市立正院小学校,石川県珠洲市正院町川尻1-39,石川県,珠洲市,37.445435,137.296505,0768-88-2825,,,,,,2E+12,珠洲市,,,,,,,,,,,,,,,,,,,,,,,
珠洲市立蛸島小学校,石川県珠洲市蛸島町ワ-69,石川県,珠洲市,37.442814,137.313529,0768-88-2826,,,,,,2E+12,珠洲市,,,,,,,,,,,,,,,,,,,,,,,
珠洲市立みさき小学校,石川県珠洲市三崎町粟津ロ-10-1,石川県,珠洲市,37.486834,137.339245,0768-88-2827,,,,,,2E+12,珠洲市,,,,,,,,,,,,,,,,,,,,,,,
珠洲市立緑丘中学校,石川県珠洲市野々江町6-1,石川県,珠洲市,37.44656,137.272807,0768-88-2828,,,,,,2E+12,珠洲市,,,,,,,,,,,,,,,,,,,,,,,
珠洲市立三崎中学校,石川県珠洲市三崎町宇治ヨ-114,石川県,珠洲市,37.473969,137.342425,0768-88-2829,,,,,,2E+12,珠洲市,,,,,,,,,,,,,,,,,,,,,,,
珠洲市立宝立小中学校,石川県珠洲市宝立町鵜飼丑-83,石川県,珠洲市,37.403237,137.237993,0768-88-2830,,,,,,2E+12,珠洲市,,,,,,,,,,,,,,,,,,,,,,,
珠洲市立大谷小中学校,石川県珠洲市大谷町1-78,石川県,珠洲市,37.499946,137.176374,0768-88-2831,,,,,,2E+12,珠洲市,,,,,,,,,,,,,,,,,,,,,,,
珠洲市立宝立公民館,石川県珠洲市宝立町鵜飼卯-46,石川県,珠洲市,37.401572,137.23932,0768-84-1500,,,,,,2E+12,珠洲市,火水木金土,8:30,17:00,,,,,,,,,,,,,,,,,,,,
珠洲市立上戸公民館,石川県珠洲市上戸町寺社2-57-1,石川県,珠洲市,37.427517,137.251429,0768-82-0140,,,,,,2E+12,珠洲市,火水木金土,8:30,17:00,,,,,,,,,,,,,,,,,,,,
珠洲市立飯田公民館,石川県珠洲市飯田町10-20-2,石川県,珠洲市,37.439755,137.263186,0768-82-0023,,,,,,2E+12,珠洲市,火水木金土,8:30,17:00,,,,,,,,,,,,,,,,,,,,
珠洲市立若山公民館,石川県珠洲市若山町古蔵寅-60-1,石川県,珠洲市,37.456711,137.241462,0768-82-6153,,,,,,2E+12,珠洲市,火水木金土,8:30,17:00,,,,,,,,,,,,,,,,,,,,
珠洲市立直公民館,石川県珠洲市野々江町ホ-80-1,石川県,珠洲市,37.443844,137.280098,0768-82-3798,,,,,,2E+12,珠洲市,火水木金土,8:30,17:00,,,,,,,,,,,,,,,,,,,,
珠洲市立正院公民館,石川県珠洲市正院町正院22-2-1,石川県,珠洲市,37.444389,137.29434,0768-82-0416,,,,,,2E+12,珠洲市,火水木金土,8:30,17:00,,,,,,,,,,,,,,,,,,,,
珠洲市立蛸島公民館,石川県珠洲市蛸島町ヨ-139-,石川県,珠洲市,37.442986,137.316431,0768-82-3202,,,,,,2E+12,珠洲市,火水木金土,8:30,17:00,,,,,,,,,,,,,,,,,,,,
珠洲市立三崎公民館,石川県珠洲市三崎町宇治ヨ-114-13,石川県,珠洲市,37.474032,137.341785,0768-88-2049,,,,,,2E+12,珠洲市,火水木金土,8:30,17:00,,,,,,,,,,,,,,,,,,,,
珠洲市立日置公民館,石川県珠洲市折戸町チ-34,石川県,珠洲市,37.5254,137.281382,0768-86-2220,,,,,,2E+12,珠洲市,火水木金土,8:30,17:00,,,,,,,,,,,,,,,,,,,,
珠洲市立大谷公民館,石川県珠洲市大谷町2字57-4,石川県,珠洲市,37.501685,137.174,0768-87-2222,,,,,,2E+12,珠洲市,火水木金土,8:30,17:00,,,,,,,,,,,,,,,,,,,,
珠洲市生涯学習センター,石川県珠洲市若山町出田41部7番地,石川県,珠洲市,37.44071676,137.2630783,0768-82-7826,,,,,,2E+12,珠洲市,火水木金土日,,,,,,,,,,,,,,,,,,,,,,
珠洲市営陸上競技場,石川県珠洲市野々江町セ-60-1,石川県,珠洲市,37.445852,137.271584,0768-88-2843,,,,,,2E+12,珠洲市,,9:00,21:00,,,,,,,,,,,,,,,,,,,,
珠洲市営野球場,石川県珠洲市蛸島町鉢ケ崎1-4,石川県,珠洲市,37.442534,137.319412,,,,,,,2E+12,珠洲市,,8:00,18:00,,,,,,,,,,,,,,,,,,,,
珠洲市営多目的広場,石川県珠洲市蛸島町鉢ケ崎1-3,石川県,珠洲市,37.443194,137.319035,,,,,,,2E+12,珠洲市,,,,,,,,,,,,,,,,,,,,,,,
珠洲市営健民テニスコート,石川県珠洲市野々江町セ-17-1,石川県,珠洲市,37.445788,137.270029,,,,,,,2E+12,珠洲市,,,,,,,,,,,,,,,,,,,,,,,
珠洲市営鉢ケ崎テニスコート,石川県珠洲市蛸島町鉢ケ崎1-24,石川県,珠洲市,37.443325,137.323225,,,,,,,2E+12,珠洲市,,9:00,21:00,,,,,,,,,,,,,,,,,,,,
珠洲市武道館,石川県珠洲市野々江町セ-17-1,石川県,珠洲市,37.447023,137.270393,,,,,,,2E+12,珠洲市,,,,,,,,,,,,,,,,,,,,,,,
珠洲市健民体育館,石川県珠洲市野々江町セ-17-1,石川県,珠洲市,37.446504,137.270347,0768-82-5100,,,,,,2E+12,珠洲市,,9:00,19:00,,,,,,,,,,,,,,,,,,,,
珠洲市ウエイトリフティング場,石川県珠洲市野々江町セ-17-1,石川県,珠洲市,37.445715,137.270388,,,,,,,2E+12,珠洲市,,9:00,21:00,,,,,,,,,,,,,,,,,,,,
珠洲市グラウンド・ゴルフ場,石川県珠洲市蛸島町1-2-174,石川県,珠洲市,37.443705,137.324381,,,,,,,2E+12,珠洲市,,9:00,,,,,,,,,,,,,,,,,,,,,
珠洲市立珠洲焼資料館,石川県珠洲市蛸島町1-2-563,石川県,珠洲市,37.440553,137.327342,0768-82-6200,,,,,,2E+12,珠洲市,火水木金土日,9:00,17:00,,珠洲焼は平安末期から室町にかけて製造されていましたが、戦国の世になると忽然と姿を消してしまいました。昭和54年に復興され、多くの専門家が”謎の古陶”として注目する珍しい焼き物です。珠洲焼資料館には、貴重な資料や作品の数々が展示されています。,可,有,無,有,スロープ有、エレベーター無、エスカレーター無,無,無,有,無,有,無,無,無,無,無,無,有,https://www.city.suzu.lg.jp/site/suzuware-museum/index.html
飯田わくわく広場,石川県珠洲市飯田町16-22-1,石川県,珠洲市,37.436072,137.261504,0768-88-2853,,,,,,2E+12,珠洲市,月火水木金土日,9:00,18:00,,館内・回廊貸し出し有り、足湯有り,可,無,無,無,無,無,無,有,無,無,無,無,無,無,有,無,有,
珠洲市バス管理棟,石川県珠洲市野々江町ヒ-1-4,石川県,珠洲市,37.441441,137.269205,0768-88-2854,,,,,,2E+12,珠洲市,月火水木金土日,7:00,19:00,,奥能登北鉄バス飯田支所,不可,無,無,無,無,無,無,有,無,無,無,無,無,無,無,無,無,
珠洲市自然エネルギーPR館,石川県珠洲市宝立町鵜島4-30,石川県,珠洲市,37.396817,137.236589,0768-88-2855,,,,,,2E+12,珠洲市,,,,,パネル展示（珠洲市の自然共生に関する取り組み、北陸電力の取組み等）。珠洲太陽光発電所の発電データをリアルタイムで表示するモニター。,可,無,無,有,スロープ有,無,無,有,無,無,無,無,無,無,無,無,有,
金沢大学能登学舎,石川県珠洲市三崎町小泊33-7,石川県,珠洲市,37.450872,137.35893,0768-88-2856,,,,,,2E+12,珠洲市・金沢大学,火水木金土,9:00,18:00,,旧小泊小学校校舎を利活用し、金沢大学能登里山里海SDGｓマイスタープログラム、能登SDGｓラボ、NPO法人能登半島おらっちゃの里山里海の各事務局を設置,不可,無,無,無,スロープ有,無,無,有,無,無,無,無,無,無,有,無,有,https://www.crc.kanazawa-u.ac.jp/meister/
野鳥観察小屋,石川県珠洲市三崎町杉山3-50-1,石川県,珠洲市,37.47348323,137.3309931,,,,,,,2E+12,珠洲市,通年,,,,野鳥の観察に適した小屋,不可,無,無,無,無,無,無,有,無,無,無,無,無,無,無,無,無,
本木地区集会所,石川県鳳珠郡能登町本木28-33-3,石川県,鳳珠郡能登町,37.164754,137.010833,,,,,,,5.00002E+12,能登町,,,,,,,,,,,,,,,,,,,,,,,
矢波地区集会所,石川県鳳珠郡能登町矢波25-32-4,石川県,鳳珠郡能登町,37.163366,137.054767,,,,,,,5.00002E+12,能登町,,,,,,,,,,,,,,,,,,,,,,,
藤波地区集会所,石川県鳳珠郡能登町藤波23-115,石川県,鳳珠郡能登町,37.173947,137.081094,,,,,,,5.00002E+12,能登町,,,,,,,,,,,,,,,,,,,,,,,
藤ノ瀬地区集会所,石川県鳳珠郡能登町藤ノ瀬3-110-7,石川県,鳳珠郡能登町,37.193397,137.061732,,,,,,,5.00002E+12,能登町,,,,,,,,,,,,,,,,,,,,,,,
七見地区集会所,石川県鳳珠郡能登町七見7-7,石川県,鳳珠郡能登町,37.154562,137.052274,,,,,,,5.00002E+12,能登町,,,,,,,,,,,,,,,,,,,,,,,
柿生地区集会所,石川県鳳珠郡能登町柿生地4-12-1,石川県,鳳珠郡能登町,37.160985,137.032809,,,,,,,5.00002E+12,能登町,,,,,,,,,,,,,,,,,,,,,,,
間島集会所,石川県鳳珠郡能登町藤波27-115-1,石川県,鳳珠郡能登町,37.173228,137.074675,,,,,,,5.00002E+12,能登町,,,,,,,,,,,,,,,,,,,,,,,
辺田の浜地区集会所,石川県鳳珠郡能登町藤波ノ66,石川県,鳳珠郡能登町,37.180203,137.084658,,,,,,,5.00002E+12,能登町,,,,,,,,,,,,,,,,,,,,,,,
宮地生活改善センター,石川県鳳珠郡能登町宮地1-1017-1,石川県,鳳珠郡能登町,37.181571,137.011002,,,,,,,5.00002E+12,能登町,,,,,,,,,,,,,,,,,,,,,,,
大平地区集会所,石川県鳳珠郡能登町宇出津山分25-218,石川県,鳳珠郡能登町,37.190518,137.083395,,,,,,,5.00002E+12,能登町,,,,,,,,,,,,,,,,,,,,,,,
宇加塚集落センター,石川県鳳珠郡能登町宇加塚2-82-2,石川県,鳳珠郡能登町,37.184088,137.055874,,,,,,,5.00002E+12,能登町,,,,,,,,,,,,,,,,,,,,,,,
猪平地区集会所,石川県鳳珠郡能登町猪平53-1,石川県,鳳珠郡能登町,37.175146,137.04473,,,,,,,5.00002E+12,能登町,,,,,,,,,,,,,,,,,,,,,,,
羽根地区集会所,石川県鳳珠郡能登町羽根8-7,石川県,鳳珠郡能登町,37.18036,137.102542,,,,,,,5.00002E+12,能登町,,,,,,,,,,,,,,,,,,,,,,,
鮭尾多目的集会所,石川県鳳珠郡能登町鮭尾6-220,石川県,鳳珠郡能登町,37.181234,137.001829,,,,,,,5.00002E+12,能登町,,,,,,,,,,,,,,,,,,,,,,,
源平多目的集会所,石川県鳳珠郡能登町宇出津山分17-68,石川県,鳳珠郡能登町,37.19374,137.092851,,,,,,,5.00002E+12,能登町,,,,,,,,,,,,,,,,,,,,,,,
柏木多目的集会所,石川県鳳珠郡能登町柏木69,石川県,鳳珠郡能登町,37.1831,136.583175,,,,,,,5.00002E+12,能登町,,,,,,,,,,,,,,,,,,,,,,,
曽又多目的集会所,石川県鳳珠郡能登町曽又7-158-8,石川県,鳳珠郡能登町,37.192064,137.043732,,,,,,,5.00002E+12,能登町,,,,,,,,,,,,,,,,,,,,,,,
真脇地区集会所,石川県鳳珠郡能登町真脇43-24,石川県,鳳珠郡能登町,37.181353,137.12134,,,,,,,5.00002E+12,能登町,,,,,,,,,,,,,,,,,,,,,,,
漆原多目的集会所,石川県鳳珠郡能登町宇出津ヌ8-7,石川県,鳳珠郡能登町,37.185052,137.085192,,,,,,,5.00002E+12,能登町,,,,,,,,,,,,,,,,,,,,,,,
小浦地区集会所,石川県鳳珠郡能登町小浦10-28-1,石川県,鳳珠郡能登町,37.180134,137.111796,,,,,,,5.00002E+12,能登町,,,,,,,,,,,,,,,,,,,,,,,
太田原地区集会所,石川県鳳珠郡能登町太田原16-19乙,石川県,鳳珠郡能登町,37.192736,136.592092,,,,,,,5.00002E+12,能登町,,,,,,,,,,,,,,,,,,,,,,,
爼倉地区集会所,石川県鳳珠郡能登町爼倉44,石川県,鳳珠郡能登町,37.175344,137.031587,,,,,,,5.00002E+12,能登町,,,,,,,,,,,,,,,,,,,,,,,
田町地区集会所,石川県鳳珠郡能登町宇出津ラ23,石川県,鳳珠郡能登町,37.181706,137.084998,,,,,,,5.00002E+12,能登町,,,,,,,,,,,,,,,,,,,,,,,
当目多目的研修センター,石川県鳳珠郡能登町当目38-153,石川県,鳳珠郡能登町,37.211255,137.003705,,,,,,,5.00002E+12,能登町,,,,,,,,,,,,,,,,,,,,,,,
十郎原集落センター,石川県鳳珠郡能登町十郎原ワ50,石川県,鳳珠郡能登町,37.212146,137.03086,,,,,,,5.00002E+12,能登町,,,,,,,,,,,,,,,,,,,,,,,
寺五地区生活改善センター,石川県鳳珠郡能登町五郎左エ門分竹20-2,石川県,鳳珠郡能登町,37.204628,137.051721,,,,,,,5.00002E+12,能登町,,,,,,,,,,,,,,,,,,,,,,,
久田農事集会所,石川県鳳珠郡能登町久田21-49,石川県,鳳珠郡能登町,37.21598,137.071373,,,,,,,5.00002E+12,能登町,,,,,,,,,,,,,,,,,,,,,,,
上長尾集会所,石川県鳳珠郡能登町上長尾ル2,石川県,鳳珠郡能登町,37.233761,137.0636,,,,,,,5.00002E+12,能登町,,,,,,,,,,,,,,,,,,,,,,,
大箱集会所,石川県鳳珠郡能登町大箱1-65,石川県,鳳珠郡能登町,37.220538,137.013011,,,,,,,5.00002E+12,能登町,,,,,,,,,,,,,,,,,,,,,,,
鴨川集会場,石川県鳳珠郡能登町鴨川ワ-20-1,石川県,鳳珠郡能登町,37.225618,137.061362,,,,,,,5.00002E+12,能登町,,,,,,,,,,,,,,,,,,,,,,,
五十里集会場,石川県鳳珠郡能登町五十里ウ77,石川県,鳳珠郡能登町,37.222671,137.031402,,,,,,,5.00002E+12,能登町,,,,,,,,,,,,,,,,,,,,,,,
笹川集会場,石川県鳳珠郡能登町笹川井20,石川県,鳳珠郡能登町,37.214871,137.060651,,,,,,,5.00002E+12,能登町,,,,,,,,,,,,,,,,,,,,,,,
石井集会場,石川県鳳珠郡能登町石井リ3,石川県,鳳珠郡能登町,37.221111,137.060057,,,,,,,5.00002E+12,能登町,,,,,,,,,,,,,,,,,,,,,,,
天坂集会場,石川県鳳珠郡能登町天坂い75,石川県,鳳珠郡能登町,37.211185,137.061784,,,,,,,5.00002E+12,能登町,,,,,,,,,,,,,,,,,,,,,,,
鈴ヶ嶺集会場,石川県鳳珠郡能登町鈴ヶ嶺ヘ29,石川県,鳳珠郡能登町,37.223232,137.06392,,,,,,,5.00002E+12,能登町,,,,,,,,,,,,,,,,,,,,,,,
国光集会所,石川県鳳珠郡能登町国光ル65-1,石川県,鳳珠郡能登町,37.223165,137.060616,,,,,,,5.00002E+12,能登町,,,,,,,,,,,,,,,,,,,,,,,
重年集会所,石川県鳳珠郡能登町柳田3-26-1,石川県,鳳珠郡能登町,37.222921,137.043617,,,,,,,5.00002E+12,能登町,,,,,,,,,,,,,,,,,,,,,,,
北河内集会所,石川県鳳珠郡能登町北河内タ55,石川県,鳳珠郡能登町,37.225445,137.013089,,,,,,,5.00002E+12,能登町,,,,,,,,,,,,,,,,,,,,,,,
中ノ又集会所,石川県鳳珠郡能登町上町り123-1,石川県,鳳珠郡能登町,37.202583,137.071649,,,,,,,5.00002E+12,能登町,,,,,,,,,,,,,,,,,,,,,,,
河ヶ谷集会場,石川県鳳珠郡能登町河ヶ谷3-19乙,石川県,鳳珠郡能登町,37.192328,137.141617,,,,,,,5.00002E+12,能登町,,,,,,,,,,,,,,,,,,,,,,,
宮犬地区生活改善センター,石川県鳳珠郡能登町宮犬12-43,石川県,鳳珠郡能登町,37.202582,137.13312,,,,,,,5.00002E+12,能登町,,,,,,,,,,,,,,,,,,,,,,,
木住多目的集会所,石川県鳳珠郡能登町山田1住45,石川県,鳳珠郡能登町,37.171547,137.020201,,,,,,,5.00002E+12,能登町,,,,,,,,,,,,,,,,,,,,,,,
斉和多目的集会所,石川県鳳珠郡能登町中斉ア77,石川県,鳳珠郡能登町,37.202341,137.03377,,,,,,,5.00002E+12,能登町,,,,,,,,,,,,,,,,,,,,,,,
野田コミュニティセンター,石川県鳳珠郡能登町柳田梅35-1,石川県,鳳珠郡能登町,37.221101,137.053557,,,,,,,5.00002E+12,能登町,,,,,,,,,,,,,,,,,,,,,,,
赤崎コミュニティセンター,石川県鳳珠郡能登町布浦二36-1,石川県,鳳珠郡能登町,37.21107,137.154855,,,,,,,5.00002E+12,能登町,,,,,,,,,,,,,,,,,,,,,,,
下市之瀬集会場,石川県鳳珠郡能登町市之瀬1-57-3,石川県,鳳珠郡能登町,37.183945,137.134207,,,,,,,5.00002E+12,能登町,,,,,,,,,,,,,,,,,,,,,,,
四明ヶ丘集会所,石川県鳳珠郡能登町藤波ノ55-70,石川県,鳳珠郡能登町,37.181786,137.082926,,,,,,,5.00002E+12,能登町,,,,,,,,,,,,,,,,,,,,,,,
程谷集会所,石川県鳳珠郡能登町時長55-16,石川県,鳳珠郡能登町,37.193845,137.115686,,,,,,,5.00002E+12,能登町,,,,,,,,,,,,,,,,,,,,,,,
日詰脇集会所,石川県鳳珠郡能登町柳田井107,石川県,鳳珠郡能登町,37.22397,137.043861,,,,,,,5.00002E+12,能登町,,,,,,,,,,,,,,,,,,,,,,,
立壁集会所,石川県鳳珠郡能登町立壁11-122,石川県,鳳珠郡能登町,37.202274,137.155392,,,,,,,5.00002E+12,能登町,,,,,,,,,,,,,,,,,,,,,,,
内浦長尾集会所,石川県鳳珠郡能登町内浦長尾65,石川県,鳳珠郡能登町,37.192621,137.152376,,,,,,,5.00002E+12,能登町,,,,,,,,,,,,,,,,,,,,,,,
比那集会所,石川県鳳珠郡能登町布浦ム50-1,石川県,鳳珠郡能登町,37.204675,137.15334,,,,,,,5.00002E+12,能登町,,,,,,,,,,,,,,,,,,,,,,,
能登町高齢者等活動施設,石川県鳳珠郡能登町小垣59,石川県,鳳珠郡能登町,37.153935,137.041855,,,,,,,5.00002E+12,能登町,,,,,,,,,,,,,,,,,,,,,,,
宇出津公民館,石川県鳳珠郡能登町宇出津ト29-2,石川県,鳳珠郡能登町,37.183642,137.085358,0768-62-3458,,,,,,5.00002E+12,能登町,火水木金土,9:00,17:00,祝日、12/29～1/3利用不可,,,,,,,,,,,,,,,,,,,
高倉公民館,石川県鳳珠郡能登町姫12-36,石川県,鳳珠郡能登町,37.180807,137.123072,0768-62-0625,,,,,,5.00002E+12,能登町,火水木金土,9:00,17:00,祝日、12/29～1/3利用不可,,,,,,,,,,,,,,,,,,,
神野公民館,石川県鳳珠郡能登町鶴町11-13-1,石川県,鳳珠郡能登町,37.18575,137.050161,0768-62-0898,,,,,,5.00002E+12,能登町,火水木金土,9:00,17:00,祝日、12/29～1/3利用不可,,,,,,,,,,,,,,,,,,,
三波公民館,石川県鳳珠郡能登町波並3-113,石川県,鳳珠郡能登町,37.172114,137.070132,0768-62-0807,,,,,,5.00002E+12,能登町,火水木金土,9:00,17:00,祝日、12/29～1/3利用不可,,,,,,,,,,,,,,,,,,,
鵜川公民館,石川県鳳珠郡能登町鵜川18-128,石川県,鳳珠郡能登町,37.151212,137.050706,0768-67-1919,,,,,,5.00002E+12,能登町,火水木金土,9:00,17:00,祝日、12/29～1/3利用不可,,,,,,,,,,,,,,,,,,,
瑞穂公民館,石川県鳳珠郡能登町瑞穂10-166,石川県,鳳珠郡能登町,37.164954,137.022672,0768-67-2941,,,,,,5.00002E+12,能登町,火水木金土,9:00,17:00,祝日、12/29～1/3利用不可,,,,,,,,,,,,,,,,,,,
柳田公民館,石川県鳳珠郡能登町柳田仁54,石川県,鳳珠郡能登町,37.220957,137.054513,0768-76-0313,,,,,,5.00002E+12,能登町,火水木金土,9:00,17:00,祝日、12/29～1/3利用不可,,,,,,,,,,,,,,,,,,,
柳田公民館柳田分館,石川県鳳珠郡能登町柳田主91,石川県,鳳珠郡能登町,37.22265,137.045384,,,,,,,5.00002E+12,能登町,火水木金土,9:00,17:00,祝日、12/29～1/3利用不可,,,,,,,,,,,,,,,,,,,
上町公民館,石川県鳳珠郡能登町上町8-505,石川県,鳳珠郡能登町,37.210179,137.063161,0768-76-0249,,,,,,5.00002E+12,能登町,火水木金土,9:00,17:00,祝日、12/29～1/3利用不可,,,,,,,,,,,,,,,,,,,
上町公民館合鹿分館,石川県鳳珠郡能登町合鹿28-65,石川県,鳳珠郡能登町,37.204478,137.081399,,,,,,,5.00002E+12,能登町,火水木金土,9:00,17:00,祝日、12/29～1/3利用不可,,,,,,,,,,,,,,,,,,,
小間生公民館,石川県鳳珠郡能登町小間生梅89-1,石川県,鳳珠郡能登町,37.225315,137.065437,0768-76-0275,,,,,,5.00002E+12,能登町,火水木金土,9:00,17:00,祝日、12/29～1/3利用不可,,,,,,,,,,,,,,,,,,,
岩井戸公民館,石川県鳳珠郡能登町黒川26-11,石川県,鳳珠郡能登町,37.215354,137.02222,0768-76-0226,,,,,,5.00002E+12,能登町,火水木金土,9:00,17:00,祝日、12/29～1/3利用不可,,,,,,,,,,,,,,,,,,,
岩井戸公民館当目分館,石川県鳳珠郡能登町当目38-118-3,石川県,鳳珠郡能登町,37.210967,137.003826,,,,,,,5.00002E+12,能登町,火水木金土,9:00,17:00,祝日、12/29～1/3利用不可,,,,,,,,,,,,,,,,,,,
松波公民館,石川県鳳珠郡能登町松波13-75-１,石川県,鳳珠郡能登町,37.211348,137.144113,0768-72-1819,,,,,,5.00002E+12,能登町,火水木金土,9:00,17:00,祝日、12/29～1/3利用不可,,,,,,,,,,,,,,,,,,,
秋吉公民館,石川県鳳珠郡能登町松波77-57,石川県,鳳珠郡能登町,37.195881,137.141968,0768-72-0006,,,,,,5.00002E+12,能登町,火水木金土,9:00,17:00,祝日、12/29～1/3利用不可,,,,,,,,,,,,,,,,,,,
不動寺公民館,石川県鳳珠郡能登町不動寺8-200-1,石川県,鳳珠郡能登町,37.201575,137.123577,0768-72-0059,,,,,,5.00002E+12,能登町,火水木金土,9:00,17:00,祝日、12/29～1/3利用不可,,,,,,,,,,,,,,,,,,,
白丸公民館,石川県鳳珠郡能登町白丸2-17,石川県,鳳珠郡能登町,37.193636,137.154907,0768-72-0279,,,,,,5.00002E+12,能登町,火水木金土,9:00,17:00,祝日、12/29～1/3利用不可,,,,,,,,,,,,,,,,,,,
小木公民館,石川県鳳珠郡能登町小木15-30-1,石川県,鳳珠郡能登町,37.180272,137.132666,0768-74-0194,,,,,,5.00002E+12,能登町,火水木金土,9:00,17:00,祝日、12/29～1/3利用不可,,,,,,,,,,,,,,,,,,,
柳田教養文化館,石川県鳳珠郡能登町柳田礼8-1,石川県,鳳珠郡能登町,37.220108,137.054846,0768-76-1585,,,,,,5.00002E+12,能登町,月火水木金土,10:30,18:30,祝日、12/29～1/3利用不可,,,,,,,,,,,,,,,,,,,
姫交流センター,石川県鳳珠郡能登町姫10-250,石川県,鳳珠郡能登町,37.174717,137.124586,,,,,,,5.00002E+12,能登町,,,,,,,,,,,,,,,,,,,,,,,
能登広域勤労青少年ホーム,石川県鳳珠郡能登町宇出津ウ1010-1,石川県,鳳珠郡能登町,37.18096,137.094104,0768-62-3755,,,,,,5.00002E+12,能登町,火水木金土,10:00,21:00,土・日曜日は10:00～18:00,,,,,,,,,,,,,,,,,,,
内浦多目的交流研修施設,石川県鳳珠郡能登町布浦拓109,石川県,鳳珠郡能登町,37.203354,137.150223,,,,,,,5.00002E+12,能登町,,,,,,,,,,,,,,,,,,,,,,,
真脇遺跡縄文館,石川県鳳珠郡能登町真脇48-100,石川県,鳳珠郡能登町,37.181826,137.123376,0768-62-4800,,,,,,5.00002E+12,能登町,水木金土日,9:00,17:00,,,,,,,,,,,,,,,,,,,,
能登内浦のドブネ収蔵庫,石川県鳳珠郡能登町真脇33-25,石川県,鳳珠郡能登町,37.182396,137.122118,0768-62-4800,,,,,,5.00002E+12,能登町,,,,,,,,,,,,,,,,,,,,,,,
羽根万象美術館,石川県鳳珠郡能登町宇出津イ1112-1,石川県,鳳珠郡能登町,37.180358,137.093753,0768-62-3669,,,,,,5.00002E+12,能登町,火水木金土日,9:00,17:00,,,,,,,,,,,,,,,,,,,,
能登町能都体育館,石川県鳳珠郡能登町崎山1丁目1,石川県,鳳珠郡能登町,37.181077,137.085378,0768-62-3567,,,,,,5.00002E+12,能登町,火水木金土日,9:00,10:00,12月～3月は21時まで。祝日、12/29日～1/3利用不可,,,,,,,,,,,,,,,,,,,
能登町能都第二体育館,石川県鳳珠郡能登町藤波14-35,石川県,鳳珠郡能登町,37.180665,137.084173,0768-62-0163,,,,,,5.00002E+12,能登町,能都中学校の開設日,,,予約の場合は開設日以外も利用可能,,,,,,,,,,,,,,,,,,,
能登町能都野球場,石川県鳳珠郡能登町宇出津イ5,石川県,鳳珠郡能登町,37.182188,137.082335,0768-62-3567,,,,,,5.00002E+12,能登町,火水木金土日,9:00,22:00,4月から11月まで。祝日の翌日、12/29～1/3利用不可,,,,,,,,,,,,,,,,,,,
雄志館,石川県鳳珠郡能登町藤波イ40,石川県,鳳珠郡能登町,37.182441,137.081825,0768-62-8537,,,,,,5.00002E+12,能登町,火水木金土日,9:00,22:00,祝日の翌日、12/29～1/3利用不可,,,,,,,,,,,,,,,,,,,
能登町瑞穂テニスコート,石川県鳳珠郡能登町瑞穂10-166,石川県,鳳珠郡能登町,37.165065,137.022549,0768-67-2941,,,,,,5.00002E+12,能登町,火水木金土日,9:00,22:00,4月から11月まで。祝日の翌日、12/29～1/3利用不可,,,,,,,,,,,,,,,,,,,
能登町屋内テニスコート,石川県鳳珠郡能登町藤波23-1,石川県,鳳珠郡能登町,37.174155,137.080514,0768-62-3884,,,,,,5.00002E+12,能登町,火水木金土日,9:00,22:00,祝日の翌日、12/29～1/3利用不可,,,,,,,,,,,,,,,,,,,
石川県立能都県民テニスコート,石川県鳳珠郡能登町藤波23-1-1,石川県,鳳珠郡能登町,37.174168,137.075999,0768-62-3884,,,,,,5.00002E+12,能登町,火水木金土日,9:00,22:00,祝日の翌日、12/29～1/3利用不可,,,,,,,,,,,,,,,,,,,
能登町藤波運動公園管理中央センター,石川県鳳珠郡能登町藤波23-54,石川県,鳳珠郡能登町,37.17385,137.075819,0768-62-3884,,,,,,5.00002E+12,能登町,火水木金土日,9:00,22:00,祝日の翌日、12/29～1/3利用不可,,,,,,,,,,,,,,,,,,,
能登町藤波運動公園多目的広場,石川県鳳珠郡能登町藤波24-71-1,石川県,鳳珠郡能登町,37.174332,137.075532,0768-62-3884,,,,,,5.00002E+12,能登町,火水木金土日,9:00,17:00,祝日の翌日、12/29～1/3利用不可,,,,,,,,,,,,,,,,,,,
藤波テニスミュージアム,石川県鳳珠郡能登町藤波23-54,石川県,鳳珠郡能登町,37.17385,137.075819,0768-62-3884,,,,,,5.00002E+12,能登町,火水木金土日,9:00,17:00,祝日の翌日、12/29～1/3利用不可,,,,,,,,,,,,,,,,,,,
能登町柳田体育館,石川県鳳珠郡能登町柳田梅55,石川県,鳳珠郡能登町,37.220715,137.053283,0768-76-1559,,,,,,5.00002E+12,能登町,火水木金土日,13:00,22:00,12月～3月は21時まで。祝日、12/29～1/3利用不可,,,,,,,,,,,,,,,,,,,
能登町柳田野球場,石川県鳳珠郡能登町柳田梅90,石川県,鳳珠郡能登町,37.22064,137.05339,0768-76-1559,,,,,,5.00002E+12,能登町,火水木金土日,13:00,22:00,祝日、12/29～1/3利用不可,,,,,,,,,,,,,,,,,,,
能登町内浦野球場,石川県鳳珠郡能登町布浦拓20-1,石川県,鳳珠郡能登町,37.203283,137.150365,0768-72-0200,,,,,,5.00002E+12,能登町,火水木金土日,9:00,22:00,4月から11月まで。祝日の翌日、12/29～1/3利用不可,,,,,,,,,,,,,,,,,,,
能登町内浦相撲場,石川県鳳珠郡能登町布浦拓20-1,石川県,鳳珠郡能登町,37.203283,137.150365,0768-72-0200,,,,,,5.00002E+12,能登町,火水木金土日,9:00,17:00,4月から11月まで。祝日の翌日、12/29～1/3利用不可,,,,,,,,,,,,,,,,,,,
能登町内浦テニスコート,石川県鳳珠郡能登町布浦拓4-5,石川県,鳳珠郡能登町,37.202789,137.145999,0768-72-0200,,,,,,5.00002E+12,能登町,火水木金土日,9:00,17:00,4月から11月まで。祝日の翌日、12/29～1/3利用不可,,,,,,,,,,,,,,,,,,,
能登町内浦しおさい広場,石川県鳳珠郡能登町布浦拓20-1,石川県,鳳珠郡能登町,37.203283,137.150365,0768-72-0200,,,,,,5.00002E+12,能登町,火水木金土日,9:00,22:00,4月から11月まで。祝日の翌日、12/29～1/3利用不可,,,,,,,,,,,,,,,,,,,
能登町内浦体育館,石川県鳳珠郡能登町布浦拓20-4,石川県,鳳珠郡能登町,37.203106,137.150383,0768-72-0200,,,,,,5.00002E+12,能登町,火水木金土日,9:00,22:00,12月～3月は21時まで。祝日の翌日、12/29～1/3利用不可,,,,,,,,,,,,,,,,,,,
能登町内浦第二体育館,石川県鳳珠郡能登町布浦拓4-5,石川県,鳳珠郡能登町,37.202789,137.145999,0768-72-0200,,,,,,5.00002E+12,能登町,火水木金土日,9:00,22:00,12月～3月は21時まで。祝日の翌日、12/29～1/3利用不可,,,,,,,,,,,,,,,,,,,
能登町内浦陸上競技場,石川県鳳珠郡能登町布浦拓20-5,石川県,鳳珠郡能登町,37.202688,137.150387,0768-72-0200,,,,,,5.00002E+12,能登町,火水木金土日,9:00,17:00,4月から11月まで。祝日の翌日、12/29～1/3利用不可,,,,,,,,,,,,,,,,,,,
能登町内浦スポーツ研修センター,石川県鳳珠郡能登町布浦拓20-3,石川県,鳳珠郡能登町,37.203106,137.150383,0768-72-0200,,,,,,5.00002E+12,能登町,火水木金土日,9:00,22:00,祝日の翌日、12/29～1/3利用不可,,,,,,,,,,,,,,,,,,,
宮地交流宿泊所こぶし,石川県鳳珠郡能登町宮地1-14-2,石川県,鳳珠郡能登町,37.181753,137.010607,0768-76-0021,,,,,,5.00002E+12,能登町,月火水木金土日,10:00,15:00,休憩利用10:00～16:00、宿泊利用16:00～10:00,,,,,,,,,,,,,,,,,,,
国民宿舎能登うしつ荘,石川県鳳珠郡能登町羽根5-4,石川県,鳳珠郡能登町,37.180523,137.101437,0768-62-2295,,,,,,5.00002E+12,能登町,年中無休,15:00,10:00,,日帰り入浴可,,,,,,,,,,,,,,,,,,https://ushitusou.jp/
国民宿舎能登やなぎだ荘,石川県鳳珠郡能登町柳田知1,石川県,鳳珠郡能登町,37.215983,137.052469,0768-76-1550,,,,,,5.00002E+12,能登町,年中無休,16:00,10:00,,日帰り入浴可,,,,,,,,,,,,,,,,,,https://www.yanagidasou.jp/
国民宿舎やなぎだ荘　温泉センター,石川県鳳珠郡能登町柳田知1,石川県,鳳珠郡能登町,37.215983,137.052469,0768-76-1550,,,,,,5.00002E+12,能登町,年中無休,7:30,21:00,,,,,,,,,,,,,,,,,,,,
真脇ポーレポーレ,石川県鳳珠郡能登町真脇19-110,石川県,鳳珠郡能登町,37.183125,137.123079,0768-62-4700,,,,,,5.00002E+12,能登町,月火木金土日,15:00,10:00,,温泉施設(縄文真脇温泉)併設,,,,,,,,,,,,,,,,,,http://mawaki-pore.jp
柳田植物公園　売店,石川県鳳珠郡能登町上町ロ1-1,石川県,鳳珠郡能登町,37.200393,137.080944,0768-76-1680,,,,,,5.00002E+12,能登町,月火水金土日,10:00,17:30,12/28～1/2利用不可,レストラン、売店、宿泊施設有り,,,,,,,,,,,,,,,,,,https://yanagida-flower.jp/
柳田植物公園　レストラン花菖蒲,石川県鳳珠郡能登町上町ロ15-1,石川県,鳳珠郡能登町,37.200358,137.081805,0768-76-1680,,,,,,5.00002E+12,能登町,月火水金土日,,,土・日・祝日は11:00～20:00。12/28～1/2利用不可,,,,,,,,,,,,,,,,,,,https://yanagida-flower.jp/
柳田植物公園　合鹿庵,石川県鳳珠郡能登町上町ロ23,石川県,鳳珠郡能登町,37.201503,137.081436,0768-76-1680,,,,,,5.00002E+12,能登町,月火水金土日,,,完全予約制。12/28～1/2利用不可,,,,,,,,,,,,,,,,,,,https://yanagida-flower.jp/
石川県柳田星の観察館「満天星」,石川県鳳珠郡能登町上町ロ1-1,石川県,鳳珠郡能登町,37.200393,137.080944,0768-76-0101,,,,,,5.00002E+12,能登町,月火金土日,9:30,17:00,12/29～1/3利用不可,,,,,,,,,,,,,,,,,,,
柳田植物公園　アストロコテージ,石川県鳳珠郡能登町上町ロ1-1,石川県,鳳珠郡能登町,37.200393,137.080944,0768-76-1680,,,,,,5.00002E+12,能登町,月火水木金土日,16:00,10:00,12/28～1/2利用不可,,,,,,,,,,,,,,,,,,,https://yanagida-flower.jp/
縄文真脇温泉浴場,石川県鳳珠郡能登町真脇19-110,石川県,鳳珠郡能登町,37.183125,137.123079,0768-62-4700,,,,,,5.00002E+12,能登町,月火木金土日,15:00,21:00,,宿泊施設(真脇ポーレポーレ)併設,,,,,,,,,,,,,,,,,,
九十九湾園地施設,石川県鳳珠郡能登町越坂3-38,石川県,鳳珠郡能登町,37.181821,137.142486,0768-74-0102,,,,,,5.00002E+12,能登町,月火水木金土日,14:00,10:00,4/1～11/30まで,公衆トイレ有り,,,,,,,,,,,,,,,,,,
恋路海水浴場更衣施設,石川県鳳珠郡能登町恋路7-11乙-1,石川県,鳳珠郡能登町,37.221671,137.142275,0768-62-8526,,,,,,5.00002E+12,能登町,月火水木金土日,,,,公衆トイレ有り、海水浴場,,,,,,,,,,,,,,,,,,
五色ヶ浜海水浴場管理棟,石川県鳳珠郡能登町新保6-19-1,石川県,鳳珠郡能登町,37.185674,137.145864,0768-62-8526,,,,,,5.00002E+12,能登町,月火水木金土日,10:00,16:00,7月中旬～8月中旬まで,海水浴場,,,,,,,,,,,,,,,,,,https://notocho.jp/experience/1290/
九里川尻湾野営場,石川県鳳珠郡能登町九里川尻16-20,石川県,鳳珠郡能登町,37.201797,137.151133,0768-62-8526,,,,,,5.00002E+12,能登町,月火水木金土日,14:00,10:00,4/1～11/30まで,,,,,,,,,,,,,,,,,,,https://whmcamp.com/991-2/
